{
    "features": [
        {
            "geometry": {
                "coordinates": [
                    146.7223893,
                    -19.2942228
                ],
                "type": "Point"
            },
            "properties": {
                "name": "The Avenues Tavern QLD"
            },
            "type": "Feature"
        },
        {
            "geometry": {
                "coordinates": [
                    153.0152717,
                    -27.4711349
                ],
                "type": "Point"
            },
            "properties": {
                "name": "The Milk Factory Kitchen & Bar QLD"
            },
            "type": "Feature"
        },
        {
            "geometry": {
                "coordinates": [
                    145.2233416,
                    -15.7060136
                ],
                "type": "Point"
            },
            "properties": {
                "name": "The Lions Den Hotel QLD"
            },
            "type": "Feature"
        },
        {
            "geometry": {
                "coordinates": [
                    153.0347011,
                    -27.4589399
                ],
                "type": "Point"
            },
            "properties": {
                "name": "Woolly Mammoth QLD"
            },
            "type": "Feature"
        },
        {
            "geometry": {
                "coordinates": [
                    153.0345482,
                    -27.4587765
                ],
                "type": "Point"
            },
            "properties": {
                "name": "X&Y QLD"
            },
            "type": "Feature"
        },
        {
            "geometry": {
                "coordinates": [
                    153.0334672,
                    -27.4573822
                ],
                "type": "Point"
            },
            "properties": {
                "name": "The Sky Room QLD"
            },
            "type": "Feature"
        },
        {
            "geometry": {
                "coordinates": [
                    153.0351943,
                    -27.45876
                ],
                "type": "Point"
            },
            "properties": {
                "name": "The Press Club QLD"
            },
            "type": "Feature"
        },
        {
            "geometry": {
                "coordinates": [
                    153.0348168,
                    -27.458835
                ],
                "type": "Point"
            },
            "properties": {
                "name": "Cloudland QLD"
            },
            "type": "Feature"
        },
        {
            "geometry": {
                "coordinates": [
                    153.0349846,
                    -27.4583008
                ],
                "type": "Point"
            },
            "properties": {
                "name": "Brunswick and Ann QLD"
            },
            "type": "Feature"
        },
        {
            "geometry": {
                "coordinates": [
                    153.0351294,
                    -27.458212
                ],
                "type": "Point"
            },
            "properties": {
                "name": "The Bowery QLD"
            },
            "type": "Feature"
        },
        {
            "geometry": {
                "coordinates": [
                    153.0352208,
                    -27.4581256
                ],
                "type": "Point"
            },
            "properties": {
                "name": "Laruche QLD"
            },
            "type": "Feature"
        },
        {
            "geometry": {
                "coordinates": [
                    153.0339321,
                    -27.4542459
                ],
                "type": "Point"
            },
            "properties": {
                "name": "Limes QLD"
            },
            "type": "Feature"
        },
        {
            "geometry": {
                "coordinates": [
                    153.0367577,
                    -27.4564862
                ],
                "type": "Point"
            },
            "properties": {
                "name": "The Fringe Bar QLD"
            },
            "type": "Feature"
        },
        {
            "geometry": {
                "coordinates": [
                    153.0390788,
                    -27.4559312
                ],
                "type": "Point"
            },
            "properties": {
                "name": "Cru Bar QLD"
            },
            "type": "Feature"
        },
        {
            "geometry": {
                "coordinates": [
                    153.0320135,
                    -27.4596343
                ],
                "type": "Point"
            },
            "properties": {
                "name": "The V Lounge QLD"
            },
            "type": "Feature"
        },
        {
            "geometry": {
                "coordinates": [
                    153.0363368,
                    -27.4561222
                ],
                "type": "Point"
            },
            "properties": {
                "name": "Barsoma QLD"
            },
            "type": "Feature"
        },
        {
            "geometry": {
                "coordinates": [
                    153.0296534,
                    -27.4857521
                ],
                "type": "Point"
            },
            "properties": {
                "name": "Can You Keep a Secret QLD"
            },
            "type": "Feature"
        },
        {
            "geometry": {
                "coordinates": [
                    153.008941,
                    -27.4622093
                ],
                "type": "Point"
            },
            "properties": {
                "name": "Unforgiven QLD"
            },
            "type": "Feature"
        },
        {
            "geometry": {
                "coordinates": [
                    153.012527,
                    -27.4796919
                ],
                "type": "Point"
            },
            "properties": {
                "name": "Rumpus Room QLD"
            },
            "type": "Feature"
        },
        {
            "geometry": {
                "coordinates": [
                    153.0126095,
                    -27.4785501
                ],
                "type": "Point"
            },
            "properties": {
                "name": "Lychee Lounge QLD"
            },
            "type": "Feature"
        },
        {
            "geometry": {
                "coordinates": [
                    153.0125662,
                    -27.479096
                ],
                "type": "Point"
            },
            "properties": {
                "name": "Loft West End QLD"
            },
            "type": "Feature"
        },
        {
            "geometry": {
                "coordinates": [
                    148.9476025,
                    -20.3457136
                ],
                "type": "Point"
            },
            "properties": {
                "name": "Bommie Deck QLD"
            },
            "type": "Feature"
        },
        {
            "geometry": {
                "coordinates": [
                    148.9563221,
                    -20.347269
                ],
                "type": "Point"
            },
            "properties": {
                "name": "Reef Lounge QLD"
            },
            "type": "Feature"
        },
        {
            "geometry": {
                "coordinates": [
                    148.955394,
                    -20.3450333
                ],
                "type": "Point"
            },
            "properties": {
                "name": "Island Bar QLD"
            },
            "type": "Feature"
        },
        {
            "geometry": {
                "coordinates": [
                    148.9529615,
                    -20.3388592
                ],
                "type": "Point"
            },
            "properties": {
                "name": "Sunset Cocktails QLD"
            },
            "type": "Feature"
        },
        {
            "geometry": {
                "coordinates": [
                    153.0241663,
                    -27.4714125
                ],
                "type": "Point"
            },
            "properties": {
                "name": "Miss Kay's Burger Bar QLD"
            },
            "type": "Feature"
        },
        {
            "geometry": {
                "coordinates": [
                    153.029434,
                    -27.4782896
                ],
                "type": "Point"
            },
            "properties": {
                "name": "Botanic Bar QLD"
            },
            "type": "Feature"
        },
        {
            "geometry": {
                "coordinates": [
                    153.0365682,
                    -27.4563025
                ],
                "type": "Point"
            },
            "properties": {
                "name": "Kerbside QLD"
            },
            "type": "Feature"
        },
        {
            "geometry": {
                "coordinates": [
                    153.0693311,
                    -27.4414005
                ],
                "type": "Point"
            },
            "properties": {
                "name": "Byblos QLD"
            },
            "type": "Feature"
        },
        {
            "geometry": {
                "coordinates": [
                    149.8047894,
                    -25.6456632
                ],
                "type": "Point"
            },
            "properties": {
                "name": "Cattlemans Bar at Taroom show only QLD"
            },
            "type": "Feature"
        },
        {
            "geometry": {
                "coordinates": [
                    149.8057443,
                    -25.646495
                ],
                "type": "Point"
            },
            "properties": {
                "name": "At local event times only QLD"
            },
            "type": "Feature"
        },
        {
            "geometry": {
                "coordinates": [
                    149.8094677,
                    -25.6456057
                ],
                "type": "Point"
            },
            "properties": {
                "name": "Taroom Golf Club QLD"
            },
            "type": "Feature"
        },
        {
            "geometry": {
                "coordinates": [
                    151.9479019,
                    -27.5910345
                ],
                "type": "Point"
            },
            "properties": {
                "name": "The Southern Hotel QLD"
            },
            "type": "Feature"
        },
        {
            "geometry": {
                "coordinates": [
                    151.9539626,
                    -27.5587943
                ],
                "type": "Point"
            },
            "properties": {
                "name": "Toowoomba Sports Club QLD"
            },
            "type": "Feature"
        },
        {
            "geometry": {
                "coordinates": [
                    148.8885701,
                    -23.5809246
                ],
                "type": "Point"
            },
            "properties": {
                "name": "The Miner's Club QLD"
            },
            "type": "Feature"
        },
        {
            "geometry": {
                "coordinates": [
                    148.0215296,
                    -23.0811002
                ],
                "type": "Point"
            },
            "properties": {
                "name": "Capella Coach Inn QLD"
            },
            "type": "Feature"
        },
        {
            "geometry": {
                "coordinates": [
                    149.1869737,
                    -21.1409051
                ],
                "type": "Point"
            },
            "properties": {
                "name": "Kate O'Reilly's Irish Bar QLD"
            },
            "type": "Feature"
        },
        {
            "geometry": {
                "coordinates": [
                    149.1855165,
                    -21.1420733
                ],
                "type": "Point"
            },
            "properties": {
                "name": "AM Bar QLD"
            },
            "type": "Feature"
        },
        {
            "geometry": {
                "coordinates": [
                    153.0263095,
                    -27.4660961
                ],
                "type": "Point"
            },
            "properties": {
                "name": "Platform Bar QLD"
            },
            "type": "Feature"
        },
        {
            "geometry": {
                "coordinates": [
                    148.7169213,
                    -20.2678673
                ],
                "type": "Point"
            },
            "properties": {
                "name": "JOE's QLD"
            },
            "type": "Feature"
        },
        {
            "geometry": {
                "coordinates": [
                    148.7181719,
                    -20.2687639
                ],
                "type": "Point"
            },
            "properties": {
                "name": "Magnums Hotel QLD"
            },
            "type": "Feature"
        },
        {
            "geometry": {
                "coordinates": [
                    148.7175482,
                    -20.2685007
                ],
                "type": "Point"
            },
            "properties": {
                "name": "Beaches QLD"
            },
            "type": "Feature"
        },
        {
            "geometry": {
                "coordinates": [
                    145.4363341,
                    -16.2255585
                ],
                "type": "Point"
            },
            "properties": {
                "name": "Gecko Bar QLD"
            },
            "type": "Feature"
        },
        {
            "geometry": {
                "coordinates": [
                    145.6848922,
                    -16.8179749
                ],
                "type": "Point"
            },
            "properties": {
                "name": "JCUSA bar QLD"
            },
            "type": "Feature"
        },
        {
            "geometry": {
                "coordinates": [
                    153.336334,
                    -27.925064
                ],
                "type": "Point"
            },
            "properties": {
                "name": "Options Tavern QLD"
            },
            "type": "Feature"
        },
        {
            "geometry": {
                "coordinates": [
                    153.0251207,
                    -27.469089
                ],
                "type": "Point"
            },
            "properties": {
                "name": "Brew QLD"
            },
            "type": "Feature"
        },
        {
            "geometry": {
                "coordinates": [
                    153.0365437,
                    -27.487277
                ],
                "type": "Point"
            },
            "properties": {
                "name": "Electric Avenue QLD"
            },
            "type": "Feature"
        },
        {
            "geometry": {
                "coordinates": [
                    153.362546,
                    -27.876002
                ],
                "type": "Point"
            },
            "properties": {
                "name": "Waterfront QLD"
            },
            "type": "Feature"
        },
        {
            "geometry": {
                "coordinates": [
                    153.3662645,
                    -27.7811628
                ],
                "type": "Point"
            },
            "properties": {
                "name": "Riverside Tavern QLD"
            },
            "type": "Feature"
        },
        {
            "geometry": {
                "coordinates": [
                    153.0353612,
                    -27.4592032
                ],
                "type": "Point"
            },
            "properties": {
                "name": "Leema's Lounge QLD"
            },
            "type": "Feature"
        },
        {
            "geometry": {
                "coordinates": [
                    153.036587,
                    -27.4595289
                ],
                "type": "Point"
            },
            "properties": {
                "name": "glass QLD"
            },
            "type": "Feature"
        },
        {
            "geometry": {
                "coordinates": [
                    153.035973,
                    -27.4577202
                ],
                "type": "Point"
            },
            "properties": {
                "name": "The Zoo QLD"
            },
            "type": "Feature"
        },
        {
            "geometry": {
                "coordinates": [
                    153.0498307,
                    -27.456358
                ],
                "type": "Point"
            },
            "properties": {
                "name": "liquid QLD"
            },
            "type": "Feature"
        },
        {
            "geometry": {
                "coordinates": [
                    153.0425128,
                    -27.4645156
                ],
                "type": "Point"
            },
            "properties": {
                "name": "Gertie's QLD"
            },
            "type": "Feature"
        },
        {
            "geometry": {
                "coordinates": [
                    145.5214375,
                    -16.5867197
                ],
                "type": "Point"
            },
            "properties": {
                "name": "Herbys Shack QLD"
            },
            "type": "Feature"
        },
        {
            "geometry": {
                "coordinates": [
                    148.8142838,
                    -20.2530301
                ],
                "type": "Point"
            },
            "properties": {
                "name": "Lagoon Bar QLD"
            },
            "type": "Feature"
        },
        {
            "geometry": {
                "coordinates": [
                    152.4513313,
                    -24.8699496
                ],
                "type": "Point"
            },
            "properties": {
                "name": "Innes Park Country Club QLD"
            },
            "type": "Feature"
        },
        {
            "geometry": {
                "coordinates": [
                    153.4314491,
                    -28.0296649
                ],
                "type": "Point"
            },
            "properties": {
                "name": "Room 81 QLD"
            },
            "type": "Feature"
        },
        {
            "geometry": {
                "coordinates": [
                    151.8981654,
                    -24.1954444
                ],
                "type": "Point"
            },
            "properties": {
                "name": "The Beach Break Bar QLD"
            },
            "type": "Feature"
        },
        {
            "geometry": {
                "coordinates": [
                    145.7758598,
                    -16.9217051
                ],
                "type": "Point"
            },
            "properties": {
                "name": "The Woolshed QLD"
            },
            "type": "Feature"
        },
        {
            "geometry": {
                "coordinates": [
                    153.4026526,
                    -27.9819796
                ],
                "type": "Point"
            },
            "properties": {
                "name": "Dougs QLD"
            },
            "type": "Feature"
        },
        {
            "geometry": {
                "coordinates": [
                    152.9940456,
                    -27.4452667
                ],
                "type": "Point"
            },
            "properties": {
                "name": "Junk Bar QLD"
            },
            "type": "Feature"
        },
        {
            "geometry": {
                "coordinates": [
                    153.4270958,
                    -28.0023579
                ],
                "type": "Point"
            },
            "properties": {
                "name": "Melbas QLD"
            },
            "type": "Feature"
        },
        {
            "geometry": {
                "coordinates": [
                    153.4280258,
                    -28.0006301
                ],
                "type": "Point"
            },
            "properties": {
                "name": "Waxy's Irsish pub QLD"
            },
            "type": "Feature"
        },
        {
            "geometry": {
                "coordinates": [
                    153.4274332,
                    -27.9909195
                ],
                "type": "Point"
            },
            "properties": {
                "name": "Lobby Lounge bar QLD"
            },
            "type": "Feature"
        },
        {
            "geometry": {
                "coordinates": [
                    153.3789665,
                    -27.9584684
                ],
                "type": "Point"
            },
            "properties": {
                "name": "Parkwood Tavern QLD"
            },
            "type": "Feature"
        },
        {
            "geometry": {
                "coordinates": [
                    152.3513987,
                    -24.8659113
                ],
                "type": "Point"
            },
            "properties": {
                "name": "Central Hotel QLD"
            },
            "type": "Feature"
        },
        {
            "geometry": {
                "coordinates": [
                    152.35119,
                    -24.865217
                ],
                "type": "Point"
            },
            "properties": {
                "name": "Grand Hotel QLD"
            },
            "type": "Feature"
        },
        {
            "geometry": {
                "coordinates": [
                    152.3521816,
                    -24.8635637
                ],
                "type": "Point"
            },
            "properties": {
                "name": "H2o QLD"
            },
            "type": "Feature"
        },
        {
            "geometry": {
                "coordinates": [
                    152.3514353,
                    -24.86763
                ],
                "type": "Point"
            },
            "properties": {
                "name": "Queenslander QLD"
            },
            "type": "Feature"
        },
        {
            "geometry": {
                "coordinates": [
                    152.3702307,
                    -24.8582881
                ],
                "type": "Point"
            },
            "properties": {
                "name": "Cutters QLD"
            },
            "type": "Feature"
        },
        {
            "geometry": {
                "coordinates": [
                    153.4149744,
                    -27.9732568
                ],
                "type": "Point"
            },
            "properties": {
                "name": "Anglers Arms Hotel QLD"
            },
            "type": "Feature"
        },
        {
            "geometry": {
                "coordinates": [
                    153.0314857,
                    -27.3886441
                ],
                "type": "Point"
            },
            "properties": {
                "name": "Sasquatch QLD"
            },
            "type": "Feature"
        },
        {
            "geometry": {
                "coordinates": [
                    153.1039483,
                    -27.2622843
                ],
                "type": "Point"
            },
            "properties": {
                "name": "Belvedere Hotel QLD"
            },
            "type": "Feature"
        },
        {
            "geometry": {
                "coordinates": [
                    153.4132721,
                    -27.9681736
                ],
                "type": "Point"
            },
            "properties": {
                "name": "Not Tonight QLD"
            },
            "type": "Feature"
        },
        {
            "geometry": {
                "coordinates": [
                    153.0109197,
                    -27.4809435
                ],
                "type": "Point"
            },
            "properties": {
                "name": "The End QLD"
            },
            "type": "Feature"
        },
        {
            "geometry": {
                "coordinates": [
                    153.4297218,
                    -28.0012279
                ],
                "type": "Point"
            },
            "properties": {
                "name": "Bourbon Bar QLD"
            },
            "type": "Feature"
        },
        {
            "geometry": {
                "coordinates": [
                    152.8737033,
                    -25.2910014
                ],
                "type": "Point"
            },
            "properties": {
                "name": "Hervey bay RSL  QLD"
            },
            "type": "Feature"
        },
        {
            "geometry": {
                "coordinates": [
                    153.4244665,
                    -28.0851494
                ],
                "type": "Point"
            },
            "properties": {
                "name": "Diamonds Tavern QLD"
            },
            "type": "Feature"
        },
        {
            "geometry": {
                "coordinates": [
                    153.4296926,
                    -28.0006731
                ],
                "type": "Point"
            },
            "properties": {
                "name": "House of Brews QLD"
            },
            "type": "Feature"
        },
        {
            "geometry": {
                "coordinates": [
                    153.0343292,
                    -27.4545253
                ],
                "type": "Point"
            },
            "properties": {
                "name": "Alfred and Constance QLD"
            },
            "type": "Feature"
        },
        {
            "geometry": {
                "coordinates": [
                    151.9521838,
                    -28.5099163
                ],
                "type": "Point"
            },
            "properties": {
                "name": "Cattle grid QLD"
            },
            "type": "Feature"
        },
        {
            "geometry": {
                "coordinates": [
                    145.4600586,
                    -16.4843319
                ],
                "type": "Point"
            },
            "properties": {
                "name": "Barbados QLD"
            },
            "type": "Feature"
        },
        {
            "geometry": {
                "coordinates": [
                    153.1262955,
                    -25.510411
                ],
                "type": "Point"
            },
            "properties": {
                "name": "Eurong Beach Bar QLD"
            },
            "type": "Feature"
        },
        {
            "geometry": {
                "coordinates": [
                    153.1197114,
                    -27.3863562
                ],
                "type": "Point"
            },
            "properties": {
                "name": "Glasshouse Bar QLD"
            },
            "type": "Feature"
        },
        {
            "geometry": {
                "coordinates": [
                    153.0306405,
                    -27.4686399
                ],
                "type": "Point"
            },
            "properties": {
                "name": "Jade Buddha Bar & Kitchen QLD"
            },
            "type": "Feature"
        },
        {
            "geometry": {
                "coordinates": [
                    153.030359,
                    -27.468341
                ],
                "type": "Point"
            },
            "properties": {
                "name": "Bavarian Bier QLD"
            },
            "type": "Feature"
        },
        {
            "geometry": {
                "coordinates": [
                    153.3809469,
                    -27.9612933
                ],
                "type": "Point"
            },
            "properties": {
                "name": "Griffith Uni Bar QLD"
            },
            "type": "Feature"
        },
        {
            "geometry": {
                "coordinates": [
                    153.0304308,
                    -27.4666593
                ],
                "type": "Point"
            },
            "properties": {
                "name": "Pigs'n'Whistle QLD"
            },
            "type": "Feature"
        },
        {
            "geometry": {
                "coordinates": [
                    145.4636922,
                    -16.0868189
                ],
                "type": "Point"
            },
            "properties": {
                "name": "Jungle Bar QLD"
            },
            "type": "Feature"
        },
        {
            "geometry": {
                "coordinates": [
                    153.0340662,
                    -27.457851
                ],
                "type": "Point"
            },
            "properties": {
                "name": "Finn McCool's QLD"
            },
            "type": "Feature"
        },
        {
            "geometry": {
                "coordinates": [
                    153.0337316,
                    -27.4593924
                ],
                "type": "Point"
            },
            "properties": {
                "name": "Birdees QLD"
            },
            "type": "Feature"
        },
        {
            "geometry": {
                "coordinates": [
                    153.0317081,
                    -27.4523925
                ],
                "type": "Point"
            },
            "properties": {
                "name": "The Tivoli QLD"
            },
            "type": "Feature"
        },
        {
            "geometry": {
                "coordinates": [
                    145.7810117,
                    -16.9186128
                ],
                "type": "Point"
            },
            "properties": {
                "name": "Salthouse QLD"
            },
            "type": "Feature"
        },
        {
            "geometry": {
                "coordinates": [
                    153.061442,
                    -27.4515582
                ],
                "type": "Point"
            },
            "properties": {
                "name": "Blind Tiger Bar QLD"
            },
            "type": "Feature"
        },
        {
            "geometry": {
                "coordinates": [
                    153.0362234,
                    -27.4571232
                ],
                "type": "Point"
            },
            "properties": {
                "name": "GPO Hotel QLD"
            },
            "type": "Feature"
        },
        {
            "geometry": {
                "coordinates": [
                    153.023234,
                    -27.4785996
                ],
                "type": "Point"
            },
            "properties": {
                "name": "Southbeach Social QLD"
            },
            "type": "Feature"
        },
        {
            "geometry": {
                "coordinates": [
                    153.0086225,
                    -27.4766137
                ],
                "type": "Point"
            },
            "properties": {
                "name": "Ballistic West End Alehouse and Kitchen QLD"
            },
            "type": "Feature"
        },
        {
            "geometry": {
                "coordinates": [
                    152.9380663,
                    -27.5086018
                ],
                "type": "Point"
            },
            "properties": {
                "name": "The Retro Bar Kenmore QLD"
            },
            "type": "Feature"
        },
        {
            "geometry": {
                "coordinates": [
                    153.0319232,
                    -27.4558767
                ],
                "type": "Point"
            },
            "properties": {
                "name": "Netherworld QLD"
            },
            "type": "Feature"
        },
        {
            "geometry": {
                "coordinates": [
                    150.5183293,
                    -23.3245369
                ],
                "type": "Point"
            },
            "properties": {
                "name": "Birdcage bar QLD"
            },
            "type": "Feature"
        },
        {
            "geometry": {
                "coordinates": [
                    153.0211776,
                    -27.4689829
                ],
                "type": "Point"
            },
            "properties": {
                "name": "Pulp Addiction Juice Bar QLD"
            },
            "type": "Feature"
        },
        {
            "geometry": {
                "coordinates": [
                    153.0106757,
                    -27.4809096
                ],
                "type": "Point"
            },
            "properties": {
                "name": "Bosc QLD"
            },
            "type": "Feature"
        },
        {
            "geometry": {
                "coordinates": [
                    145.6440488,
                    -16.7241454
                ],
                "type": "Point"
            },
            "properties": {
                "name": "Ellis Beach Bar & Grill QLD"
            },
            "type": "Feature"
        },
        {
            "geometry": {
                "coordinates": [
                    153.0157607,
                    -27.4749852
                ],
                "type": "Point"
            },
            "properties": {
                "name": "La Lune Wine Co QLD"
            },
            "type": "Feature"
        },
        {
            "geometry": {
                "coordinates": [
                    153.0191116,
                    -27.4754298
                ],
                "type": "Point"
            },
            "properties": {
                "name": "North Terrace Bar QLD"
            },
            "type": "Feature"
        },
        {
            "geometry": {
                "coordinates": [
                    153.035822,
                    -27.4578116
                ],
                "type": "Point"
            },
            "properties": {
                "name": "King Lears Throne QLD"
            },
            "type": "Feature"
        },
        {
            "geometry": {
                "coordinates": [
                    153.0332453,
                    -27.4569366
                ],
                "type": "Point"
            },
            "properties": {
                "name": "Crow Bar QLD"
            },
            "type": "Feature"
        },
        {
            "geometry": {
                "coordinates": [
                    152.9386041,
                    -27.5076045
                ],
                "type": "Point"
            },
            "properties": {
                "name": "Neighbourhood QLD"
            },
            "type": "Feature"
        },
        {
            "geometry": {
                "coordinates": [
                    153.0216633,
                    -27.4790916
                ],
                "type": "Point"
            },
            "properties": {
                "name": "Burrito Bar QLD"
            },
            "type": "Feature"
        },
        {
            "geometry": {
                "coordinates": [
                    152.9484613,
                    -27.5066909
                ],
                "type": "Point"
            },
            "properties": {
                "name": "Acai Bros. Superfood QLD"
            },
            "type": "Feature"
        },
        {
            "geometry": {
                "coordinates": [
                    152.9602878,
                    -27.5053616
                ],
                "type": "Point"
            },
            "properties": {
                "name": "Suburban Social QLD"
            },
            "type": "Feature"
        },
        {
            "geometry": {
                "coordinates": [
                    152.9383102,
                    -27.5085643
                ],
                "type": "Point"
            },
            "properties": {
                "name": "Coffee and Juice Bar QLD"
            },
            "type": "Feature"
        },
        {
            "geometry": {
                "coordinates": [
                    153.0212945,
                    -27.4779075
                ],
                "type": "Point"
            },
            "properties": {
                "name": "The Sangira Bar QLD"
            },
            "type": "Feature"
        },
        {
            "geometry": {
                "coordinates": [
                    153.0217549,
                    -27.4784344
                ],
                "type": "Point"
            },
            "properties": {
                "name": "Grey Stone QLD"
            },
            "type": "Feature"
        },
        {
            "geometry": {
                "coordinates": [
                    153.0224197,
                    -27.4793326
                ],
                "type": "Point"
            },
            "properties": {
                "name": "Zeus QLD"
            },
            "type": "Feature"
        },
        {
            "geometry": {
                "coordinates": [
                    153.0280751,
                    -27.4836142
                ],
                "type": "Point"
            },
            "properties": {
                "name": "The Margarita Bar QLD"
            },
            "type": "Feature"
        },
        {
            "geometry": {
                "coordinates": [
                    153.0229341,
                    -27.4802342
                ],
                "type": "Point"
            },
            "properties": {
                "name": "Bourbon St QLD"
            },
            "type": "Feature"
        },
        {
            "geometry": {
                "coordinates": [
                    153.0228591,
                    -27.4801208
                ],
                "type": "Point"
            },
            "properties": {
                "name": "Tippler's Tap QLD"
            },
            "type": "Feature"
        },
        {
            "geometry": {
                "coordinates": [
                    153.0228028,
                    -27.4797852
                ],
                "type": "Point"
            },
            "properties": {
                "name": "French Martini QLD"
            },
            "type": "Feature"
        },
        {
            "geometry": {
                "coordinates": [
                    153.023241,
                    -27.4804287
                ],
                "type": "Point"
            },
            "properties": {
                "name": "The Manhattan Line QLD"
            },
            "type": "Feature"
        },
        {
            "geometry": {
                "coordinates": [
                    153.0250401,
                    -27.4808119
                ],
                "type": "Point"
            },
            "properties": {
                "name": "Jetty QLD"
            },
            "type": "Feature"
        },
        {
            "geometry": {
                "coordinates": [
                    153.0254772,
                    -27.480894
                ],
                "type": "Point"
            },
            "properties": {
                "name": "Aquitaine QLD"
            },
            "type": "Feature"
        },
        {
            "geometry": {
                "coordinates": [
                    153.0257658,
                    -27.481019
                ],
                "type": "Point"
            },
            "properties": {
                "name": "Stoke Bar QLD"
            },
            "type": "Feature"
        },
        {
            "geometry": {
                "coordinates": [
                    153.023086,
                    -27.4783054
                ],
                "type": "Point"
            },
            "properties": {
                "name": "South Bank Beer Garden QLD"
            },
            "type": "Feature"
        },
        {
            "geometry": {
                "coordinates": [
                    153.021622,
                    -27.4781443
                ],
                "type": "Point"
            },
            "properties": {
                "name": "Next Door QLD"
            },
            "type": "Feature"
        },
        {
            "geometry": {
                "coordinates": [
                    152.9534938,
                    -27.6008696
                ],
                "type": "Point"
            },
            "properties": {
                "name": "Richlands Tavern QLD"
            },
            "type": "Feature"
        },
        {
            "geometry": {
                "coordinates": [
                    153.1623054,
                    -28.0863594
                ],
                "type": "Point"
            },
            "properties": {
                "name": "Flying Fox Tavern QLD"
            },
            "type": "Feature"
        },
        {
            "geometry": {
                "coordinates": [
                    153.024484,
                    -27.4702422
                ],
                "type": "Point"
            },
            "properties": {
                "name": "Oasis Juice Bar QLD"
            },
            "type": "Feature"
        },
        {
            "geometry": {
                "coordinates": [
                    153.0919886,
                    -26.651261
                ],
                "type": "Point"
            },
            "properties": {
                "name": "Duporth Tavern QLD"
            },
            "type": "Feature"
        },
        {
            "geometry": {
                "coordinates": [
                    152.9023061,
                    -27.6776481
                ],
                "type": "Point"
            },
            "properties": {
                "name": "Beach House QLD"
            },
            "type": "Feature"
        },
        {
            "geometry": {
                "coordinates": [
                    153.0315468,
                    -27.3825756
                ],
                "type": "Point"
            },
            "properties": {
                "name": "Tapworks Bar & Grill QLD"
            },
            "type": "Feature"
        },
        {
            "geometry": {
                "coordinates": [
                    153.0318659,
                    -27.3821772
                ],
                "type": "Point"
            },
            "properties": {
                "name": "Bootlegger QLD"
            },
            "type": "Feature"
        },
        {
            "geometry": {
                "coordinates": [
                    153.0315693,
                    -27.3822614
                ],
                "type": "Point"
            },
            "properties": {
                "name": "The Bavarian QLD"
            },
            "type": "Feature"
        },
        {
            "geometry": {
                "coordinates": [
                    153.0319983,
                    -27.3822723
                ],
                "type": "Point"
            },
            "properties": {
                "name": "Bin 931 QLD"
            },
            "type": "Feature"
        },
        {
            "geometry": {
                "coordinates": [
                    153.0424546,
                    -27.4644296
                ],
                "type": "Point"
            },
            "properties": {
                "name": "Deathproof QLD"
            },
            "type": "Feature"
        },
        {
            "geometry": {
                "coordinates": [
                    153.0242457,
                    -27.4696511
                ],
                "type": "Point"
            },
            "properties": {
                "name": "Super Whatnot QLD"
            },
            "type": "Feature"
        },
        {
            "geometry": {
                "coordinates": [
                    146.1076177,
                    -17.8675291
                ],
                "type": "Point"
            },
            "properties": {
                "name": "The Garage Bar QLD"
            },
            "type": "Feature"
        },
        {
            "geometry": {
                "coordinates": [
                    150.8148984,
                    -23.7141953
                ],
                "type": "Point"
            },
            "properties": {
                "name": "Raglan tavern QLD"
            },
            "type": "Feature"
        },
        {
            "geometry": {
                "coordinates": [
                    150.3102061,
                    -28.5477388
                ],
                "type": "Point"
            },
            "properties": {
                "name": "Queensland Hotel QLD"
            },
            "type": "Feature"
        },
        {
            "geometry": {
                "coordinates": [
                    153.0459629,
                    -27.5010488
                ],
                "type": "Point"
            },
            "properties": {
                "name": "Shady Palms Cafe & Bar QLD"
            },
            "type": "Feature"
        },
        {
            "geometry": {
                "coordinates": [
                    153.4703376,
                    -28.1427012
                ],
                "type": "Point"
            },
            "properties": {
                "name": "Balter QLD"
            },
            "type": "Feature"
        },
        {
            "geometry": {
                "coordinates": [
                    145.7778553,
                    -16.921966
                ],
                "type": "Point"
            },
            "properties": {
                "name": "Three Wolves QLD"
            },
            "type": "Feature"
        },
        {
            "geometry": {
                "coordinates": [
                    153.4508464,
                    -28.088882
                ],
                "type": "Point"
            },
            "properties": {
                "name": "Iku Yakatori QLD"
            },
            "type": "Feature"
        },
        {
            "geometry": {
                "coordinates": [
                    153.0448358,
                    -27.4984835
                ],
                "type": "Point"
            },
            "properties": {
                "name": "The Bent Elbow QLD"
            },
            "type": "Feature"
        },
        {
            "geometry": {
                "coordinates": [
                    145.7804685,
                    -16.9256121
                ],
                "type": "Point"
            },
            "properties": {
                "name": "Hemingway\u2019s Brewery QLD"
            },
            "type": "Feature"
        },
        {
            "geometry": {
                "coordinates": [
                    153.0384705,
                    -27.4905825
                ],
                "type": "Point"
            },
            "properties": {
                "name": "Brat Haus QLD"
            },
            "type": "Feature"
        },
        {
            "geometry": {
                "coordinates": [
                    153.0064771,
                    -27.4232224
                ],
                "type": "Point"
            },
            "properties": {
                "name": "Greninja Cafe QLD"
            },
            "type": "Feature"
        },
        {
            "geometry": {
                "coordinates": [
                    153.0257573,
                    -27.6661913
                ],
                "type": "Point"
            },
            "properties": {
                "name": "WreckitRoddy's Cantina QLD"
            },
            "type": "Feature"
        },
        {
            "geometry": {
                "coordinates": [
                    153.0326837,
                    -27.4513367
                ],
                "type": "Point"
            },
            "properties": {
                "name": "Beerhaus QLD"
            },
            "type": "Feature"
        },
        {
            "geometry": {
                "coordinates": [
                    153.0321134,
                    -27.4514176
                ],
                "type": "Point"
            },
            "properties": {
                "name": "Padock Bar QLD"
            },
            "type": "Feature"
        },
        {
            "geometry": {
                "coordinates": [
                    144.6071182,
                    -14.5823928
                ],
                "type": "Point"
            },
            "properties": {
                "name": "Jack and Bianca\u2019s beer time QLD"
            },
            "type": "Feature"
        },
        {
            "geometry": {
                "coordinates": [
                    144.8833783,
                    -16.4696913
                ],
                "type": "Point"
            },
            "properties": {
                "name": "Jack and Bianca\u2019s beer time QLD"
            },
            "type": "Feature"
        },
        {
            "geometry": {
                "coordinates": [
                    153.0289629,
                    -27.470302
                ],
                "type": "Point"
            },
            "properties": {
                "name": "Doo-Bop Jazz Bar QLD"
            },
            "type": "Feature"
        },
        {
            "geometry": {
                "coordinates": [
                    149.4847364,
                    -22.0471944
                ],
                "type": "Point"
            },
            "properties": {
                "name": "Brandy Bottle Camp QLD"
            },
            "type": "Feature"
        },
        {
            "geometry": {
                "coordinates": [
                    153.012478,
                    -27.4778174
                ],
                "type": "Point"
            },
            "properties": {
                "name": "Salt Meats Cheese QLD"
            },
            "type": "Feature"
        },
        {
            "geometry": {
                "coordinates": [
                    153.0123417,
                    -27.4778442
                ],
                "type": "Point"
            },
            "properties": {
                "name": "Cheeky Pok\u00e9 Bar QLD"
            },
            "type": "Feature"
        },
        {
            "geometry": {
                "coordinates": [
                    140.8276051,
                    -17.4609681
                ],
                "type": "Point"
            },
            "properties": {
                "name": "The Sunset Tavern QLD"
            },
            "type": "Feature"
        },
        {
            "geometry": {
                "coordinates": [
                    153.0360126,
                    -27.4687851
                ],
                "type": "Point"
            },
            "properties": {
                "name": "The Shelter Bar QLD"
            },
            "type": "Feature"
        },
        {
            "geometry": {
                "coordinates": [
                    145.4489969,
                    -14.666423
                ],
                "type": "Point"
            },
            "properties": {
                "name": "Marlin Bar QLD"
            },
            "type": "Feature"
        },
        {
            "geometry": {
                "coordinates": [
                    145.7756643,
                    -16.922421
                ],
                "type": "Point"
            },
            "properties": {
                "name": "P.J.O\u2019Brien\u2019s QLD"
            },
            "type": "Feature"
        }
    ],
    "type": "FeatureCollection"
}
