{
    "features": [
        {
            "geometry": {
                "coordinates": [
                    151.2626972,
                    -27.1818231
                ],
                "type": "Point"
            },
            "properties": {
                "name": "McDonald's QLD"
            },
            "type": "Feature"
        },
        {
            "geometry": {
                "coordinates": [
                    151.2641249,
                    -27.1838752
                ],
                "type": "Point"
            },
            "properties": {
                "name": "Red Rooster QLD"
            },
            "type": "Feature"
        },
        {
            "geometry": {
                "coordinates": [
                    151.2608364,
                    -27.1805777
                ],
                "type": "Point"
            },
            "properties": {
                "name": "KFC QLD"
            },
            "type": "Feature"
        },
        {
            "geometry": {
                "coordinates": [
                    151.2602223,
                    -27.17985
                ],
                "type": "Point"
            },
            "properties": {
                "name": "Eagle Boys Pizza QLD"
            },
            "type": "Feature"
        },
        {
            "geometry": {
                "coordinates": [
                    151.2627769,
                    -27.1835469
                ],
                "type": "Point"
            },
            "properties": {
                "name": "Hungry Jack's QLD"
            },
            "type": "Feature"
        },
        {
            "geometry": {
                "coordinates": [
                    151.2672873,
                    -27.1809214
                ],
                "type": "Point"
            },
            "properties": {
                "name": "Subway QLD"
            },
            "type": "Feature"
        },
        {
            "geometry": {
                "coordinates": [
                    151.9758532,
                    -27.5715323
                ],
                "type": "Point"
            },
            "properties": {
                "name": "Leongs Chinese Kitchen QLD"
            },
            "type": "Feature"
        },
        {
            "geometry": {
                "coordinates": [
                    151.9757186,
                    -27.5715011
                ],
                "type": "Point"
            },
            "properties": {
                "name": "Simply Seafood QLD"
            },
            "type": "Feature"
        },
        {
            "geometry": {
                "coordinates": [
                    151.9602265,
                    -27.5694888
                ],
                "type": "Point"
            },
            "properties": {
                "name": "Big Dad's Pies QLD"
            },
            "type": "Feature"
        },
        {
            "geometry": {
                "coordinates": [
                    151.9784941,
                    -27.585526
                ],
                "type": "Point"
            },
            "properties": {
                "name": "Ferdinando's Pizza QLD"
            },
            "type": "Feature"
        },
        {
            "geometry": {
                "coordinates": [
                    151.9784298,
                    -27.5856557
                ],
                "type": "Point"
            },
            "properties": {
                "name": "High Street Wharf Seafood & Takeaway QLD"
            },
            "type": "Feature"
        },
        {
            "geometry": {
                "coordinates": [
                    151.978139,
                    -27.586118
                ],
                "type": "Point"
            },
            "properties": {
                "name": "Harry's Bakery QLD"
            },
            "type": "Feature"
        },
        {
            "geometry": {
                "coordinates": [
                    151.9564883,
                    -27.5650199
                ],
                "type": "Point"
            },
            "properties": {
                "name": "Stoney's QLD"
            },
            "type": "Feature"
        },
        {
            "geometry": {
                "coordinates": [
                    153.0618205,
                    -27.5713208
                ],
                "type": "Point"
            },
            "properties": {
                "name": "McDonald's QLD"
            },
            "type": "Feature"
        },
        {
            "geometry": {
                "coordinates": [
                    153.0047579,
                    -27.4324902
                ],
                "type": "Point"
            },
            "properties": {
                "name": "McDonald's QLD"
            },
            "type": "Feature"
        },
        {
            "geometry": {
                "coordinates": [
                    152.796684,
                    -27.6125642
                ],
                "type": "Point"
            },
            "properties": {
                "name": "McDonald's QLD"
            },
            "type": "Feature"
        },
        {
            "geometry": {
                "coordinates": [
                    152.788398,
                    -27.6139866
                ],
                "type": "Point"
            },
            "properties": {
                "name": "KFC QLD"
            },
            "type": "Feature"
        },
        {
            "geometry": {
                "coordinates": [
                    152.7897177,
                    -27.6145683
                ],
                "type": "Point"
            },
            "properties": {
                "name": "Red Rooster QLD"
            },
            "type": "Feature"
        },
        {
            "geometry": {
                "coordinates": [
                    152.7993274,
                    -27.6128768
                ],
                "type": "Point"
            },
            "properties": {
                "name": "Hungry Jacks QLD"
            },
            "type": "Feature"
        },
        {
            "geometry": {
                "coordinates": [
                    153.025149,
                    -27.4114125
                ],
                "type": "Point"
            },
            "properties": {
                "name": "The Codfather QLD"
            },
            "type": "Feature"
        },
        {
            "geometry": {
                "coordinates": [
                    153.4465618,
                    -28.077892
                ],
                "type": "Point"
            },
            "properties": {
                "name": "McDonald's QLD"
            },
            "type": "Feature"
        },
        {
            "geometry": {
                "coordinates": [
                    152.95304,
                    -27.2916919
                ],
                "type": "Point"
            },
            "properties": {
                "name": "McDonald's QLD"
            },
            "type": "Feature"
        },
        {
            "geometry": {
                "coordinates": [
                    152.9491631,
                    -27.5068507
                ],
                "type": "Point"
            },
            "properties": {
                "name": "McDonald's QLD"
            },
            "type": "Feature"
        },
        {
            "geometry": {
                "coordinates": [
                    152.6667676,
                    -26.1998133
                ],
                "type": "Point"
            },
            "properties": {
                "name": "Neptunes Seafood QLD"
            },
            "type": "Feature"
        },
        {
            "geometry": {
                "coordinates": [
                    152.9778593,
                    -27.4105259
                ],
                "type": "Point"
            },
            "properties": {
                "name": "McDonald's QLD"
            },
            "type": "Feature"
        },
        {
            "geometry": {
                "coordinates": [
                    153.0394951,
                    -27.5457571
                ],
                "type": "Point"
            },
            "properties": {
                "name": "McDonald's QLD"
            },
            "type": "Feature"
        },
        {
            "geometry": {
                "coordinates": [
                    153.0155905,
                    -27.5580428
                ],
                "type": "Point"
            },
            "properties": {
                "name": "Hungry Jacks QLD"
            },
            "type": "Feature"
        },
        {
            "geometry": {
                "coordinates": [
                    152.9610683,
                    -27.3962062
                ],
                "type": "Point"
            },
            "properties": {
                "name": "Dominos QLD"
            },
            "type": "Feature"
        },
        {
            "geometry": {
                "coordinates": [
                    153.0612687,
                    -27.3708342
                ],
                "type": "Point"
            },
            "properties": {
                "name": "Mcdonalds Virginia QLD"
            },
            "type": "Feature"
        },
        {
            "geometry": {
                "coordinates": [
                    153.0294135,
                    -27.4450187
                ],
                "type": "Point"
            },
            "properties": {
                "name": "Hungry Jacks QLD"
            },
            "type": "Feature"
        },
        {
            "geometry": {
                "coordinates": [
                    153.03058,
                    -27.43903
                ],
                "type": "Point"
            },
            "properties": {
                "name": "McDonald's QLD"
            },
            "type": "Feature"
        },
        {
            "geometry": {
                "coordinates": [
                    153.0065755,
                    -27.4369584
                ],
                "type": "Point"
            },
            "properties": {
                "name": "Domino's Pizza QLD"
            },
            "type": "Feature"
        },
        {
            "geometry": {
                "coordinates": [
                    152.98724,
                    -27.46703
                ],
                "type": "Point"
            },
            "properties": {
                "name": "Rainworth Fish and Chips QLD"
            },
            "type": "Feature"
        },
        {
            "geometry": {
                "coordinates": [
                    152.9755218,
                    -27.1536409
                ],
                "type": "Point"
            },
            "properties": {
                "name": "Subway QLD"
            },
            "type": "Feature"
        },
        {
            "geometry": {
                "coordinates": [
                    153.0109432,
                    -27.3916567
                ],
                "type": "Point"
            },
            "properties": {
                "name": "Pizza Capers QLD"
            },
            "type": "Feature"
        },
        {
            "geometry": {
                "coordinates": [
                    153.0407287,
                    -27.4628082
                ],
                "type": "Point"
            },
            "properties": {
                "name": "Miss India QLD"
            },
            "type": "Feature"
        },
        {
            "geometry": {
                "coordinates": [
                    153.0414718,
                    -27.4632864
                ],
                "type": "Point"
            },
            "properties": {
                "name": "Barbek\u00fc QLD"
            },
            "type": "Feature"
        },
        {
            "geometry": {
                "coordinates": [
                    153.0415966,
                    -27.4631662
                ],
                "type": "Point"
            },
            "properties": {
                "name": "Krua E-San QLD"
            },
            "type": "Feature"
        },
        {
            "geometry": {
                "coordinates": [
                    153.0415402,
                    -27.4632269
                ],
                "type": "Point"
            },
            "properties": {
                "name": "Pizza Hut QLD"
            },
            "type": "Feature"
        },
        {
            "geometry": {
                "coordinates": [
                    153.1733944,
                    -27.4359834
                ],
                "type": "Point"
            },
            "properties": {
                "name": "Fish & Chips QLD"
            },
            "type": "Feature"
        },
        {
            "geometry": {
                "coordinates": [
                    153.0252521,
                    -27.4698207
                ],
                "type": "Point"
            },
            "properties": {
                "name": "Hungry Jacks QLD"
            },
            "type": "Feature"
        },
        {
            "geometry": {
                "coordinates": [
                    152.9520097,
                    -27.4452687
                ],
                "type": "Point"
            },
            "properties": {
                "name": "Subway QLD"
            },
            "type": "Feature"
        },
        {
            "geometry": {
                "coordinates": [
                    152.9366986,
                    -27.550383
                ],
                "type": "Point"
            },
            "properties": {
                "name": "Hungry Jacks QLD"
            },
            "type": "Feature"
        },
        {
            "geometry": {
                "coordinates": [
                    152.9362866,
                    -27.5502916
                ],
                "type": "Point"
            },
            "properties": {
                "name": "KFC QLD"
            },
            "type": "Feature"
        },
        {
            "geometry": {
                "coordinates": [
                    152.9362449,
                    -27.5507148
                ],
                "type": "Point"
            },
            "properties": {
                "name": "Pizza Hut QLD"
            },
            "type": "Feature"
        },
        {
            "geometry": {
                "coordinates": [
                    152.9763778,
                    -27.4201201
                ],
                "type": "Point"
            },
            "properties": {
                "name": "Fish and Chips QLD"
            },
            "type": "Feature"
        },
        {
            "geometry": {
                "coordinates": [
                    152.9797466,
                    -27.4165003
                ],
                "type": "Point"
            },
            "properties": {
                "name": "Red Rooster QLD"
            },
            "type": "Feature"
        },
        {
            "geometry": {
                "coordinates": [
                    153.03592,
                    -27.47707
                ],
                "type": "Point"
            },
            "properties": {
                "name": "Boomerang Snack Bar QLD"
            },
            "type": "Feature"
        },
        {
            "geometry": {
                "coordinates": [
                    153.0268354,
                    -27.3309796
                ],
                "type": "Point"
            },
            "properties": {
                "name": "McDonald's QLD"
            },
            "type": "Feature"
        },
        {
            "geometry": {
                "coordinates": [
                    152.9483066,
                    -27.5357766
                ],
                "type": "Point"
            },
            "properties": {
                "name": "McDonald's QLD"
            },
            "type": "Feature"
        },
        {
            "geometry": {
                "coordinates": [
                    152.9888561,
                    -27.3052528
                ],
                "type": "Point"
            },
            "properties": {
                "name": "KFC QLD"
            },
            "type": "Feature"
        },
        {
            "geometry": {
                "coordinates": [
                    153.004076,
                    -27.4532849
                ],
                "type": "Point"
            },
            "properties": {
                "name": "Red Hill Seafoods QLD"
            },
            "type": "Feature"
        },
        {
            "geometry": {
                "coordinates": [
                    152.9625232,
                    -27.403426
                ],
                "type": "Point"
            },
            "properties": {
                "name": "Cold Rock QLD"
            },
            "type": "Feature"
        },
        {
            "geometry": {
                "coordinates": [
                    153.0435034,
                    -27.6053033
                ],
                "type": "Point"
            },
            "properties": {
                "name": "Hungry Jacks QLD"
            },
            "type": "Feature"
        },
        {
            "geometry": {
                "coordinates": [
                    153.0649367,
                    -27.5693149
                ],
                "type": "Point"
            },
            "properties": {
                "name": "KFC QLD"
            },
            "type": "Feature"
        },
        {
            "geometry": {
                "coordinates": [
                    152.9936098,
                    -27.4457696
                ],
                "type": "Point"
            },
            "properties": {
                "name": "Pizza Hut QLD"
            },
            "type": "Feature"
        },
        {
            "geometry": {
                "coordinates": [
                    153.04485,
                    -27.4225626
                ],
                "type": "Point"
            },
            "properties": {
                "name": "Sam's Malaysian Chinese Special Cuisine QLD"
            },
            "type": "Feature"
        },
        {
            "geometry": {
                "coordinates": [
                    153.0447049,
                    -27.422556
                ],
                "type": "Point"
            },
            "properties": {
                "name": "George Mius Chinese Takeaway QLD"
            },
            "type": "Feature"
        },
        {
            "geometry": {
                "coordinates": [
                    152.951614,
                    -27.4454473
                ],
                "type": "Point"
            },
            "properties": {
                "name": "McDonald's QLD"
            },
            "type": "Feature"
        },
        {
            "geometry": {
                "coordinates": [
                    152.9649472,
                    -27.3455196
                ],
                "type": "Point"
            },
            "properties": {
                "name": "McDonalds McCafe QLD"
            },
            "type": "Feature"
        },
        {
            "geometry": {
                "coordinates": [
                    152.9643807,
                    -27.34539
                ],
                "type": "Point"
            },
            "properties": {
                "name": "KFC QLD"
            },
            "type": "Feature"
        },
        {
            "geometry": {
                "coordinates": [
                    152.9649643,
                    -27.3461447
                ],
                "type": "Point"
            },
            "properties": {
                "name": "Subway QLD"
            },
            "type": "Feature"
        },
        {
            "geometry": {
                "coordinates": [
                    153.05902,
                    -27.49489
                ],
                "type": "Point"
            },
            "properties": {
                "name": "Shore Catch QLD"
            },
            "type": "Feature"
        },
        {
            "geometry": {
                "coordinates": [
                    153.019889,
                    -27.4843698
                ],
                "type": "Point"
            },
            "properties": {
                "name": "Aegean Delights QLD"
            },
            "type": "Feature"
        },
        {
            "geometry": {
                "coordinates": [
                    153.041114,
                    -27.4341839
                ],
                "type": "Point"
            },
            "properties": {
                "name": "The Boss Cafe & Take Away QLD"
            },
            "type": "Feature"
        },
        {
            "geometry": {
                "coordinates": [
                    153.0346032,
                    -27.4865316
                ],
                "type": "Point"
            },
            "properties": {
                "name": "Red Box Canteen + Catering QLD"
            },
            "type": "Feature"
        },
        {
            "geometry": {
                "coordinates": [
                    153.0349236,
                    -27.4865822
                ],
                "type": "Point"
            },
            "properties": {
                "name": "Oishii QLD"
            },
            "type": "Feature"
        },
        {
            "geometry": {
                "coordinates": [
                    153.0350277,
                    -27.4865986
                ],
                "type": "Point"
            },
            "properties": {
                "name": "The Royal Punjab QLD"
            },
            "type": "Feature"
        },
        {
            "geometry": {
                "coordinates": [
                    153.0444453,
                    -27.4918801
                ],
                "type": "Point"
            },
            "properties": {
                "name": "Gonzos Carvery and Take-Away QLD"
            },
            "type": "Feature"
        },
        {
            "geometry": {
                "coordinates": [
                    153.019738,
                    -27.4325661
                ],
                "type": "Point"
            },
            "properties": {
                "name": "Cold Rock Ice Creamery QLD"
            },
            "type": "Feature"
        },
        {
            "geometry": {
                "coordinates": [
                    153.0194318,
                    -27.4321832
                ],
                "type": "Point"
            },
            "properties": {
                "name": "D'lish Fish QLD"
            },
            "type": "Feature"
        },
        {
            "geometry": {
                "coordinates": [
                    152.9880212,
                    -27.5957216
                ],
                "type": "Point"
            },
            "properties": {
                "name": "Brodie's QLD"
            },
            "type": "Feature"
        },
        {
            "geometry": {
                "coordinates": [
                    152.9203984,
                    -27.6681
                ],
                "type": "Point"
            },
            "properties": {
                "name": "Subway QLD"
            },
            "type": "Feature"
        },
        {
            "geometry": {
                "coordinates": [
                    153.1123291,
                    -27.6079065
                ],
                "type": "Point"
            },
            "properties": {
                "name": "Nando's QLD"
            },
            "type": "Feature"
        },
        {
            "geometry": {
                "coordinates": [
                    153.0712187,
                    -27.433954
                ],
                "type": "Point"
            },
            "properties": {
                "name": "Hamilton Seafood Take-away QLD"
            },
            "type": "Feature"
        },
        {
            "geometry": {
                "coordinates": [
                    153.072953,
                    -27.4230994
                ],
                "type": "Point"
            },
            "properties": {
                "name": "Hendra Fish & Chips QLD"
            },
            "type": "Feature"
        },
        {
            "geometry": {
                "coordinates": [
                    153.064665,
                    -27.4831043
                ],
                "type": "Point"
            },
            "properties": {
                "name": "Seafoods QLD"
            },
            "type": "Feature"
        },
        {
            "geometry": {
                "coordinates": [
                    153.0797627,
                    -27.4348637
                ],
                "type": "Point"
            },
            "properties": {
                "name": "Eagles in the Park Takeaway QLD"
            },
            "type": "Feature"
        },
        {
            "geometry": {
                "coordinates": [
                    153.0307601,
                    -27.4613953
                ],
                "type": "Point"
            },
            "properties": {
                "name": "The Hub's Wok QLD"
            },
            "type": "Feature"
        },
        {
            "geometry": {
                "coordinates": [
                    153.0903689,
                    -27.468995
                ],
                "type": "Point"
            },
            "properties": {
                "name": "Noodle Box QLD"
            },
            "type": "Feature"
        },
        {
            "geometry": {
                "coordinates": [
                    153.0282226,
                    -27.4991094
                ],
                "type": "Point"
            },
            "properties": {
                "name": "Fish Kitchen QLD"
            },
            "type": "Feature"
        },
        {
            "geometry": {
                "coordinates": [
                    153.0969835,
                    -27.470765
                ],
                "type": "Point"
            },
            "properties": {
                "name": "Subway QLD"
            },
            "type": "Feature"
        },
        {
            "geometry": {
                "coordinates": [
                    153.0968119,
                    -27.4692419
                ],
                "type": "Point"
            },
            "properties": {
                "name": "Red Rooster Cannon Hill QLD"
            },
            "type": "Feature"
        },
        {
            "geometry": {
                "coordinates": [
                    153.0558478,
                    -27.4507597
                ],
                "type": "Point"
            },
            "properties": {
                "name": "Thai Legend QLD"
            },
            "type": "Feature"
        },
        {
            "geometry": {
                "coordinates": [
                    153.055593,
                    -27.45073
                ],
                "type": "Point"
            },
            "properties": {
                "name": "Oxford Fish n Chips QLD"
            },
            "type": "Feature"
        },
        {
            "geometry": {
                "coordinates": [
                    153.0474847,
                    -27.5033642
                ],
                "type": "Point"
            },
            "properties": {
                "name": "Subway QLD"
            },
            "type": "Feature"
        },
        {
            "geometry": {
                "coordinates": [
                    153.0407456,
                    -27.4914417
                ],
                "type": "Point"
            },
            "properties": {
                "name": "Sam's Takeaway and Catering QLD"
            },
            "type": "Feature"
        },
        {
            "geometry": {
                "coordinates": [
                    153.0117259,
                    -27.4547133
                ],
                "type": "Point"
            },
            "properties": {
                "name": "Miss India QLD"
            },
            "type": "Feature"
        },
        {
            "geometry": {
                "coordinates": [
                    153.0449796,
                    -27.5092152
                ],
                "type": "Point"
            },
            "properties": {
                "name": "Fish and Chips Snack Bar QLD"
            },
            "type": "Feature"
        },
        {
            "geometry": {
                "coordinates": [
                    151.9441501,
                    -27.5540709
                ],
                "type": "Point"
            },
            "properties": {
                "name": "Bernys Fish & Chips QLD"
            },
            "type": "Feature"
        },
        {
            "geometry": {
                "coordinates": [
                    151.933902,
                    -27.5544732
                ],
                "type": "Point"
            },
            "properties": {
                "name": "Brunch Lunch Munch QLD"
            },
            "type": "Feature"
        },
        {
            "geometry": {
                "coordinates": [
                    151.9471955,
                    -27.5933063
                ],
                "type": "Point"
            },
            "properties": {
                "name": "KFC QLD"
            },
            "type": "Feature"
        },
        {
            "geometry": {
                "coordinates": [
                    151.9469515,
                    -27.5931304
                ],
                "type": "Point"
            },
            "properties": {
                "name": "Subway QLD"
            },
            "type": "Feature"
        },
        {
            "geometry": {
                "coordinates": [
                    151.947099,
                    -27.5931684
                ],
                "type": "Point"
            },
            "properties": {
                "name": "Baskin Robins QLD"
            },
            "type": "Feature"
        },
        {
            "geometry": {
                "coordinates": [
                    151.9488336,
                    -27.5841988
                ],
                "type": "Point"
            },
            "properties": {
                "name": "Hungry Jacks QLD"
            },
            "type": "Feature"
        },
        {
            "geometry": {
                "coordinates": [
                    151.9496049,
                    -27.584637
                ],
                "type": "Point"
            },
            "properties": {
                "name": "Super Rooster QLD"
            },
            "type": "Feature"
        },
        {
            "geometry": {
                "coordinates": [
                    151.9496282,
                    -27.5843774
                ],
                "type": "Point"
            },
            "properties": {
                "name": "Guzman y Gomez QLD"
            },
            "type": "Feature"
        },
        {
            "geometry": {
                "coordinates": [
                    151.9498963,
                    -27.5846958
                ],
                "type": "Point"
            },
            "properties": {
                "name": "Cold Rock Ice Cream QLD"
            },
            "type": "Feature"
        },
        {
            "geometry": {
                "coordinates": [
                    151.2659078,
                    -27.1865306
                ],
                "type": "Point"
            },
            "properties": {
                "name": "Darby's Hotbread - Windmill QLD"
            },
            "type": "Feature"
        },
        {
            "geometry": {
                "coordinates": [
                    151.9538417,
                    -28.6308746
                ],
                "type": "Point"
            },
            "properties": {
                "name": "McDonalds McCafe QLD"
            },
            "type": "Feature"
        },
        {
            "geometry": {
                "coordinates": [
                    153.093879,
                    -27.3774155
                ],
                "type": "Point"
            },
            "properties": {
                "name": "Red Rooster QLD"
            },
            "type": "Feature"
        },
        {
            "geometry": {
                "coordinates": [
                    153.0940018,
                    -27.3775382
                ],
                "type": "Point"
            },
            "properties": {
                "name": "Krispy Kreme QLD"
            },
            "type": "Feature"
        },
        {
            "geometry": {
                "coordinates": [
                    153.0940971,
                    -27.3773634
                ],
                "type": "Point"
            },
            "properties": {
                "name": "UTK QLD"
            },
            "type": "Feature"
        },
        {
            "geometry": {
                "coordinates": [
                    153.0060235,
                    -27.4359271
                ],
                "type": "Point"
            },
            "properties": {
                "name": "Pit Boss American QLD"
            },
            "type": "Feature"
        },
        {
            "geometry": {
                "coordinates": [
                    153.0298467,
                    -27.5177732
                ],
                "type": "Point"
            },
            "properties": {
                "name": "Pizza Capers QLD"
            },
            "type": "Feature"
        },
        {
            "geometry": {
                "coordinates": [
                    153.0312137,
                    -27.5124472
                ],
                "type": "Point"
            },
            "properties": {
                "name": "Subway QLD"
            },
            "type": "Feature"
        },
        {
            "geometry": {
                "coordinates": [
                    152.657561,
                    -26.1914306
                ],
                "type": "Point"
            },
            "properties": {
                "name": "Red Rooster QLD"
            },
            "type": "Feature"
        },
        {
            "geometry": {
                "coordinates": [
                    153.4309261,
                    -28.0020842
                ],
                "type": "Point"
            },
            "properties": {
                "name": "McDonald's QLD"
            },
            "type": "Feature"
        },
        {
            "geometry": {
                "coordinates": [
                    153.0064669,
                    -27.2651997
                ],
                "type": "Point"
            },
            "properties": {
                "name": "McDonalds QLD"
            },
            "type": "Feature"
        },
        {
            "geometry": {
                "coordinates": [
                    153.0067006,
                    -27.2656653
                ],
                "type": "Point"
            },
            "properties": {
                "name": "Salt and Battered QLD"
            },
            "type": "Feature"
        },
        {
            "geometry": {
                "coordinates": [
                    153.0918121,
                    -27.4311407
                ],
                "type": "Point"
            },
            "properties": {
                "name": "Eagles Takeaway & Carvery QLD"
            },
            "type": "Feature"
        },
        {
            "geometry": {
                "coordinates": [
                    152.9429237,
                    -27.3843596
                ],
                "type": "Point"
            },
            "properties": {
                "name": "Pizza Shop QLD"
            },
            "type": "Feature"
        },
        {
            "geometry": {
                "coordinates": [
                    152.95843,
                    -27.40919
                ],
                "type": "Point"
            },
            "properties": {
                "name": "Keperra Fish & Chips QLD"
            },
            "type": "Feature"
        },
        {
            "geometry": {
                "coordinates": [
                    153.0299403,
                    -27.5185946
                ],
                "type": "Point"
            },
            "properties": {
                "name": "Podges Takeaway QLD"
            },
            "type": "Feature"
        },
        {
            "geometry": {
                "coordinates": [
                    153.0706261,
                    -27.4693921
                ],
                "type": "Point"
            },
            "properties": {
                "name": "KFC Morningside QLD"
            },
            "type": "Feature"
        },
        {
            "geometry": {
                "coordinates": [
                    153.04817,
                    -27.40197
                ],
                "type": "Point"
            },
            "properties": {
                "name": "Buckland Chinese Takeaway QLD"
            },
            "type": "Feature"
        },
        {
            "geometry": {
                "coordinates": [
                    153.5419741,
                    -27.4358294
                ],
                "type": "Point"
            },
            "properties": {
                "name": "Pizza Shop QLD"
            },
            "type": "Feature"
        },
        {
            "geometry": {
                "coordinates": [
                    153.0228998,
                    -27.4784022
                ],
                "type": "Point"
            },
            "properties": {
                "name": "Juice Bar QLD"
            },
            "type": "Feature"
        },
        {
            "geometry": {
                "coordinates": [
                    153.0221873,
                    -27.4776018
                ],
                "type": "Point"
            },
            "properties": {
                "name": "Boost QLD"
            },
            "type": "Feature"
        },
        {
            "geometry": {
                "coordinates": [
                    153.0220993,
                    -27.4774804
                ],
                "type": "Point"
            },
            "properties": {
                "name": "Cosmos Cafe QLD"
            },
            "type": "Feature"
        },
        {
            "geometry": {
                "coordinates": [
                    153.0221447,
                    -27.477543
                ],
                "type": "Point"
            },
            "properties": {
                "name": "Presto Pizza & Pasta QLD"
            },
            "type": "Feature"
        },
        {
            "geometry": {
                "coordinates": [
                    153.022136,
                    -27.4774089
                ],
                "type": "Point"
            },
            "properties": {
                "name": "South Bank Kebab QLD"
            },
            "type": "Feature"
        },
        {
            "geometry": {
                "coordinates": [
                    153.02207,
                    -27.47744
                ],
                "type": "Point"
            },
            "properties": {
                "name": "Fins & Feathers QLD"
            },
            "type": "Feature"
        },
        {
            "geometry": {
                "coordinates": [
                    151.9479559,
                    -27.5891975
                ],
                "type": "Point"
            },
            "properties": {
                "name": "McDonald's QLD"
            },
            "type": "Feature"
        },
        {
            "geometry": {
                "coordinates": [
                    151.9480843,
                    -27.5899439
                ],
                "type": "Point"
            },
            "properties": {
                "name": "Red Rooster QLD"
            },
            "type": "Feature"
        },
        {
            "geometry": {
                "coordinates": [
                    151.9252345,
                    -27.5441156
                ],
                "type": "Point"
            },
            "properties": {
                "name": "Hungry Jacks QLD"
            },
            "type": "Feature"
        },
        {
            "geometry": {
                "coordinates": [
                    151.9248825,
                    -27.5440293
                ],
                "type": "Point"
            },
            "properties": {
                "name": "Subway QLD"
            },
            "type": "Feature"
        },
        {
            "geometry": {
                "coordinates": [
                    153.040286,
                    -27.4507741
                ],
                "type": "Point"
            },
            "properties": {
                "name": "Snack Bar QLD"
            },
            "type": "Feature"
        },
        {
            "geometry": {
                "coordinates": [
                    153.0915967,
                    -27.2560827
                ],
                "type": "Point"
            },
            "properties": {
                "name": "Fish 'n' Chips QLD"
            },
            "type": "Feature"
        },
        {
            "geometry": {
                "coordinates": [
                    153.11172,
                    -27.1942728
                ],
                "type": "Point"
            },
            "properties": {
                "name": "Fish and Chips QLD"
            },
            "type": "Feature"
        },
        {
            "geometry": {
                "coordinates": [
                    153.175804,
                    -27.6623967
                ],
                "type": "Point"
            },
            "properties": {
                "name": "Subway QLD"
            },
            "type": "Feature"
        },
        {
            "geometry": {
                "coordinates": [
                    153.1753393,
                    -27.6634006
                ],
                "type": "Point"
            },
            "properties": {
                "name": "Mario's Pizza QLD"
            },
            "type": "Feature"
        },
        {
            "geometry": {
                "coordinates": [
                    153.1766009,
                    -27.6631424
                ],
                "type": "Point"
            },
            "properties": {
                "name": "KFC QLD"
            },
            "type": "Feature"
        },
        {
            "geometry": {
                "coordinates": [
                    151.8695921,
                    -27.6086763
                ],
                "type": "Point"
            },
            "properties": {
                "name": "Eagle Boys Pizza QLD"
            },
            "type": "Feature"
        },
        {
            "geometry": {
                "coordinates": [
                    153.3548079,
                    -27.60686
                ],
                "type": "Point"
            },
            "properties": {
                "name": "Just Seafood QLD"
            },
            "type": "Feature"
        },
        {
            "geometry": {
                "coordinates": [
                    152.760676,
                    -27.6227963
                ],
                "type": "Point"
            },
            "properties": {
                "name": "Fatseas Chicken bar, Carvery & Hot Bread QLD"
            },
            "type": "Feature"
        },
        {
            "geometry": {
                "coordinates": [
                    153.0768317,
                    -27.5005701
                ],
                "type": "Point"
            },
            "properties": {
                "name": "King Salmon Seafood QLD"
            },
            "type": "Feature"
        },
        {
            "geometry": {
                "coordinates": [
                    153.0766735,
                    -27.5007224
                ],
                "type": "Point"
            },
            "properties": {
                "name": "Harvest of the Sea QLD"
            },
            "type": "Feature"
        },
        {
            "geometry": {
                "coordinates": [
                    153.0630092,
                    -27.5067763
                ],
                "type": "Point"
            },
            "properties": {
                "name": "Oh Burger It QLD"
            },
            "type": "Feature"
        },
        {
            "geometry": {
                "coordinates": [
                    153.0636167,
                    -27.5066571
                ],
                "type": "Point"
            },
            "properties": {
                "name": "Blue Ocean Seafood QLD"
            },
            "type": "Feature"
        },
        {
            "geometry": {
                "coordinates": [
                    153.0257083,
                    -27.4704789
                ],
                "type": "Point"
            },
            "properties": {
                "name": "McDonald's QLD"
            },
            "type": "Feature"
        },
        {
            "geometry": {
                "coordinates": [
                    153.0438925,
                    -26.3971143
                ],
                "type": "Point"
            },
            "properties": {
                "name": "Lakeside Seafoods QLD"
            },
            "type": "Feature"
        },
        {
            "geometry": {
                "coordinates": [
                    152.9792666,
                    -27.4927
                ],
                "type": "Point"
            },
            "properties": {
                "name": "Domino's Pizza QLD"
            },
            "type": "Feature"
        },
        {
            "geometry": {
                "coordinates": [
                    153.1032533,
                    -27.5008344
                ],
                "type": "Point"
            },
            "properties": {
                "name": "Domino's Pizza QLD"
            },
            "type": "Feature"
        },
        {
            "geometry": {
                "coordinates": [
                    153.0606763,
                    -27.3569046
                ],
                "type": "Point"
            },
            "properties": {
                "name": "Big Dads Pies QLD"
            },
            "type": "Feature"
        },
        {
            "geometry": {
                "coordinates": [
                    153.0608426,
                    -27.3529881
                ],
                "type": "Point"
            },
            "properties": {
                "name": "Pizza Plaza QLD"
            },
            "type": "Feature"
        },
        {
            "geometry": {
                "coordinates": [
                    153.0636339,
                    -27.3832326
                ],
                "type": "Point"
            },
            "properties": {
                "name": "Subway QLD"
            },
            "type": "Feature"
        },
        {
            "geometry": {
                "coordinates": [
                    153.0635099,
                    -27.3830902
                ],
                "type": "Point"
            },
            "properties": {
                "name": "Domino's Pizza QLD"
            },
            "type": "Feature"
        },
        {
            "geometry": {
                "coordinates": [
                    151.8359765,
                    -26.5392426
                ],
                "type": "Point"
            },
            "properties": {
                "name": "McDonald's QLD"
            },
            "type": "Feature"
        },
        {
            "geometry": {
                "coordinates": [
                    153.2233276,
                    -27.7313381
                ],
                "type": "Point"
            },
            "properties": {
                "name": "Yatala Take Away QLD"
            },
            "type": "Feature"
        },
        {
            "geometry": {
                "coordinates": [
                    153.158734,
                    -27.0835156
                ],
                "type": "Point"
            },
            "properties": {
                "name": "Golden Prawn Seafood & Takeaway QLD"
            },
            "type": "Feature"
        },
        {
            "geometry": {
                "coordinates": [
                    153.0870559,
                    -27.4582352
                ],
                "type": "Point"
            },
            "properties": {
                "name": "Willy's Carvery Cafe QLD"
            },
            "type": "Feature"
        },
        {
            "geometry": {
                "coordinates": [
                    152.8861905,
                    -27.3727582
                ],
                "type": "Point"
            },
            "properties": {
                "name": "Wasabi Sushi QLD"
            },
            "type": "Feature"
        },
        {
            "geometry": {
                "coordinates": [
                    153.0700502,
                    -27.3212284
                ],
                "type": "Point"
            },
            "properties": {
                "name": "Dominos QLD"
            },
            "type": "Feature"
        },
        {
            "geometry": {
                "coordinates": [
                    152.8870849,
                    -27.3714079
                ],
                "type": "Point"
            },
            "properties": {
                "name": "Alon Tum Thai QLD"
            },
            "type": "Feature"
        },
        {
            "geometry": {
                "coordinates": [
                    152.8866182,
                    -27.3714698
                ],
                "type": "Point"
            },
            "properties": {
                "name": "Samford Chinese Take Away QLD"
            },
            "type": "Feature"
        },
        {
            "geometry": {
                "coordinates": [
                    152.886864,
                    -27.371213
                ],
                "type": "Point"
            },
            "properties": {
                "name": "The Original Samford Snack Bar QLD"
            },
            "type": "Feature"
        },
        {
            "geometry": {
                "coordinates": [
                    152.887085,
                    -27.3697284
                ],
                "type": "Point"
            },
            "properties": {
                "name": "Itsa Goa QLD"
            },
            "type": "Feature"
        },
        {
            "geometry": {
                "coordinates": [
                    142.5588887,
                    -12.0927684
                ],
                "type": "Point"
            },
            "properties": {
                "name": "Bramwell Roadhouse QLD"
            },
            "type": "Feature"
        },
        {
            "geometry": {
                "coordinates": [
                    153.062283,
                    -27.3638277
                ],
                "type": "Point"
            },
            "properties": {
                "name": "Eagle Boys QLD"
            },
            "type": "Feature"
        },
        {
            "geometry": {
                "coordinates": [
                    153.0142519,
                    -27.5355777
                ],
                "type": "Point"
            },
            "properties": {
                "name": "Leo's Snack Bar QLD"
            },
            "type": "Feature"
        },
        {
            "geometry": {
                "coordinates": [
                    153.0144347,
                    -27.5352685
                ],
                "type": "Point"
            },
            "properties": {
                "name": "Basic Necessities QLD"
            },
            "type": "Feature"
        },
        {
            "geometry": {
                "coordinates": [
                    153.0150074,
                    -27.5351208
                ],
                "type": "Point"
            },
            "properties": {
                "name": "Paul's Burger Bar QLD"
            },
            "type": "Feature"
        },
        {
            "geometry": {
                "coordinates": [
                    153.0152907,
                    -27.5191419
                ],
                "type": "Point"
            },
            "properties": {
                "name": "Domino's QLD"
            },
            "type": "Feature"
        },
        {
            "geometry": {
                "coordinates": [
                    153.0153551,
                    -27.5189326
                ],
                "type": "Point"
            },
            "properties": {
                "name": "Subway QLD"
            },
            "type": "Feature"
        },
        {
            "geometry": {
                "coordinates": [
                    153.0153282,
                    -27.5190277
                ],
                "type": "Point"
            },
            "properties": {
                "name": "Red Rock Noodle Bar QLD"
            },
            "type": "Feature"
        },
        {
            "geometry": {
                "coordinates": [
                    153.0272126,
                    -27.4723036
                ],
                "type": "Point"
            },
            "properties": {
                "name": "MYO QLD"
            },
            "type": "Feature"
        },
        {
            "geometry": {
                "coordinates": [
                    153.0276835,
                    -27.4719317
                ],
                "type": "Point"
            },
            "properties": {
                "name": "Turquoise QLD"
            },
            "type": "Feature"
        },
        {
            "geometry": {
                "coordinates": [
                    153.0288112,
                    -27.47069
                ],
                "type": "Point"
            },
            "properties": {
                "name": "Shelden on Mary QLD"
            },
            "type": "Feature"
        },
        {
            "geometry": {
                "coordinates": [
                    153.0299484,
                    -27.4704813
                ],
                "type": "Point"
            },
            "properties": {
                "name": "LR Sushi QLD"
            },
            "type": "Feature"
        },
        {
            "geometry": {
                "coordinates": [
                    153.1078291,
                    -27.6413237
                ],
                "type": "Point"
            },
            "properties": {
                "name": "Subway QLD"
            },
            "type": "Feature"
        },
        {
            "geometry": {
                "coordinates": [
                    153.128002,
                    -27.6220651
                ],
                "type": "Point"
            },
            "properties": {
                "name": "Hungry Jacks QLD"
            },
            "type": "Feature"
        },
        {
            "geometry": {
                "coordinates": [
                    153.4372613,
                    -28.064089
                ],
                "type": "Point"
            },
            "properties": {
                "name": "KFC QLD"
            },
            "type": "Feature"
        },
        {
            "geometry": {
                "coordinates": [
                    153.3085774,
                    -27.8605435
                ],
                "type": "Point"
            },
            "properties": {
                "name": "McDonald's QLD"
            },
            "type": "Feature"
        },
        {
            "geometry": {
                "coordinates": [
                    153.0968374,
                    -27.5178059
                ],
                "type": "Point"
            },
            "properties": {
                "name": "McDonald's QLD"
            },
            "type": "Feature"
        },
        {
            "geometry": {
                "coordinates": [
                    153.3811258,
                    -27.6485338
                ],
                "type": "Point"
            },
            "properties": {
                "name": "Kebab Shop QLD"
            },
            "type": "Feature"
        },
        {
            "geometry": {
                "coordinates": [
                    153.4423331,
                    -28.0981081
                ],
                "type": "Point"
            },
            "properties": {
                "name": "Hungry Jack's QLD"
            },
            "type": "Feature"
        },
        {
            "geometry": {
                "coordinates": [
                    153.2689086,
                    -27.5259251
                ],
                "type": "Point"
            },
            "properties": {
                "name": "Subway QLD"
            },
            "type": "Feature"
        },
        {
            "geometry": {
                "coordinates": [
                    145.7401703,
                    -16.9127073
                ],
                "type": "Point"
            },
            "properties": {
                "name": "Mcdonalds Manoora QLD"
            },
            "type": "Feature"
        },
        {
            "geometry": {
                "coordinates": [
                    153.304451,
                    -27.870655
                ],
                "type": "Point"
            },
            "properties": {
                "name": "Sam's Fish and Chips QLD"
            },
            "type": "Feature"
        },
        {
            "geometry": {
                "coordinates": [
                    153.3003605,
                    -27.851991
                ],
                "type": "Point"
            },
            "properties": {
                "name": "Sushi Break QLD"
            },
            "type": "Feature"
        },
        {
            "geometry": {
                "coordinates": [
                    153.3006501,
                    -27.8517965
                ],
                "type": "Point"
            },
            "properties": {
                "name": "Metro Carvery QLD"
            },
            "type": "Feature"
        },
        {
            "geometry": {
                "coordinates": [
                    153.0144024,
                    -27.4536609
                ],
                "type": "Point"
            },
            "properties": {
                "name": "Frozen Yoghurt QLD"
            },
            "type": "Feature"
        },
        {
            "geometry": {
                "coordinates": [
                    153.014188,
                    -27.4538651
                ],
                "type": "Point"
            },
            "properties": {
                "name": "Subway QLD"
            },
            "type": "Feature"
        },
        {
            "geometry": {
                "coordinates": [
                    153.014146,
                    -27.4539961
                ],
                "type": "Point"
            },
            "properties": {
                "name": "Pizza Capers QLD"
            },
            "type": "Feature"
        },
        {
            "geometry": {
                "coordinates": [
                    153.0141851,
                    -27.4540652
                ],
                "type": "Point"
            },
            "properties": {
                "name": "Nando's QLD"
            },
            "type": "Feature"
        },
        {
            "geometry": {
                "coordinates": [
                    153.0137973,
                    -27.454092
                ],
                "type": "Point"
            },
            "properties": {
                "name": "Kamil's Kebabs QLD"
            },
            "type": "Feature"
        },
        {
            "geometry": {
                "coordinates": [
                    153.0143741,
                    -27.4541483
                ],
                "type": "Point"
            },
            "properties": {
                "name": "Carraway Pier QLD"
            },
            "type": "Feature"
        },
        {
            "geometry": {
                "coordinates": [
                    153.2260903,
                    -27.7350606
                ],
                "type": "Point"
            },
            "properties": {
                "name": "Yatala Pie Shop QLD"
            },
            "type": "Feature"
        },
        {
            "geometry": {
                "coordinates": [
                    153.203831,
                    -27.7188895
                ],
                "type": "Point"
            },
            "properties": {
                "name": "Subway QLD"
            },
            "type": "Feature"
        },
        {
            "geometry": {
                "coordinates": [
                    151.9254929,
                    -27.5450567
                ],
                "type": "Point"
            },
            "properties": {
                "name": "Super Rooster QLD"
            },
            "type": "Feature"
        },
        {
            "geometry": {
                "coordinates": [
                    153.0193757,
                    -27.4662699
                ],
                "type": "Point"
            },
            "properties": {
                "name": "Flame Pizza QLD"
            },
            "type": "Feature"
        },
        {
            "geometry": {
                "coordinates": [
                    153.0808044,
                    -27.5619416
                ],
                "type": "Point"
            },
            "properties": {
                "name": "Oporto QLD"
            },
            "type": "Feature"
        },
        {
            "geometry": {
                "coordinates": [
                    153.0814535,
                    -27.562536
                ],
                "type": "Point"
            },
            "properties": {
                "name": "Jamaica Blue QLD"
            },
            "type": "Feature"
        },
        {
            "geometry": {
                "coordinates": [
                    153.083669,
                    -27.5612972
                ],
                "type": "Point"
            },
            "properties": {
                "name": "Domino Pizza QLD"
            },
            "type": "Feature"
        },
        {
            "geometry": {
                "coordinates": [
                    153.1440486,
                    -27.0639802
                ],
                "type": "Point"
            },
            "properties": {
                "name": "Sylvan Beach Fish Cafe QLD"
            },
            "type": "Feature"
        },
        {
            "geometry": {
                "coordinates": [
                    153.1648296,
                    -27.0757981
                ],
                "type": "Point"
            },
            "properties": {
                "name": "Dougs Place QLD"
            },
            "type": "Feature"
        },
        {
            "geometry": {
                "coordinates": [
                    153.1531277,
                    -27.4904634
                ],
                "type": "Point"
            },
            "properties": {
                "name": "Subway QLD"
            },
            "type": "Feature"
        },
        {
            "geometry": {
                "coordinates": [
                    153.1569677,
                    -27.4746241
                ],
                "type": "Point"
            },
            "properties": {
                "name": "Pizza Capers QLD"
            },
            "type": "Feature"
        },
        {
            "geometry": {
                "coordinates": [
                    153.1260984,
                    -27.4744488
                ],
                "type": "Point"
            },
            "properties": {
                "name": "Subway QLD"
            },
            "type": "Feature"
        },
        {
            "geometry": {
                "coordinates": [
                    153.1340574,
                    -27.4756464
                ],
                "type": "Point"
            },
            "properties": {
                "name": "Fish & Chips QLD"
            },
            "type": "Feature"
        },
        {
            "geometry": {
                "coordinates": [
                    152.7901298,
                    -27.6149766
                ],
                "type": "Point"
            },
            "properties": {
                "name": "Subway QLD"
            },
            "type": "Feature"
        },
        {
            "geometry": {
                "coordinates": [
                    153.0431381,
                    -27.6056337
                ],
                "type": "Point"
            },
            "properties": {
                "name": "Fancy Fish QLD"
            },
            "type": "Feature"
        },
        {
            "geometry": {
                "coordinates": [
                    153.0438329,
                    -27.6055636
                ],
                "type": "Point"
            },
            "properties": {
                "name": "Brodies QLD"
            },
            "type": "Feature"
        },
        {
            "geometry": {
                "coordinates": [
                    152.6671502,
                    -26.1999981
                ],
                "type": "Point"
            },
            "properties": {
                "name": "McDonald's QLD"
            },
            "type": "Feature"
        },
        {
            "geometry": {
                "coordinates": [
                    152.9315229,
                    -27.4048127
                ],
                "type": "Point"
            },
            "properties": {
                "name": "Taylor's Sea Food QLD"
            },
            "type": "Feature"
        },
        {
            "geometry": {
                "coordinates": [
                    153.0227828,
                    -27.4800515
                ],
                "type": "Point"
            },
            "properties": {
                "name": "Suki QLD"
            },
            "type": "Feature"
        },
        {
            "geometry": {
                "coordinates": [
                    153.2012522,
                    -27.5423917
                ],
                "type": "Point"
            },
            "properties": {
                "name": "Callahan's Takeaway QLD"
            },
            "type": "Feature"
        },
        {
            "geometry": {
                "coordinates": [
                    153.1925619,
                    -27.5201309
                ],
                "type": "Point"
            },
            "properties": {
                "name": "KFC QLD"
            },
            "type": "Feature"
        },
        {
            "geometry": {
                "coordinates": [
                    153.2011726,
                    -27.5423925
                ],
                "type": "Point"
            },
            "properties": {
                "name": "Maridale Cottage Bakery QLD"
            },
            "type": "Feature"
        },
        {
            "geometry": {
                "coordinates": [
                    152.9482066,
                    -27.5065027
                ],
                "type": "Point"
            },
            "properties": {
                "name": "Noodle Box QLD"
            },
            "type": "Feature"
        },
        {
            "geometry": {
                "coordinates": [
                    152.9484388,
                    -27.506868
                ],
                "type": "Point"
            },
            "properties": {
                "name": "Nandos QLD"
            },
            "type": "Feature"
        },
        {
            "geometry": {
                "coordinates": [
                    153.1073726,
                    -27.5489191
                ],
                "type": "Point"
            },
            "properties": {
                "name": "Donini's Takeaway QLD"
            },
            "type": "Feature"
        },
        {
            "geometry": {
                "coordinates": [
                    145.4749301,
                    -17.2685636
                ],
                "type": "Point"
            },
            "properties": {
                "name": "Eagle Boys QLD"
            },
            "type": "Feature"
        },
        {
            "geometry": {
                "coordinates": [
                    145.4745482,
                    -17.2676075
                ],
                "type": "Point"
            },
            "properties": {
                "name": "McDonald's QLD"
            },
            "type": "Feature"
        },
        {
            "geometry": {
                "coordinates": [
                    145.4764453,
                    -17.2601623
                ],
                "type": "Point"
            },
            "properties": {
                "name": "Khans Curries QLD"
            },
            "type": "Feature"
        },
        {
            "geometry": {
                "coordinates": [
                    146.404772,
                    -19.0097898
                ],
                "type": "Point"
            },
            "properties": {
                "name": "Fishermans Landing QLD"
            },
            "type": "Feature"
        },
        {
            "geometry": {
                "coordinates": [
                    153.1090417,
                    -27.6327445
                ],
                "type": "Point"
            },
            "properties": {
                "name": "Fish and Chips QLD"
            },
            "type": "Feature"
        },
        {
            "geometry": {
                "coordinates": [
                    153.1188724,
                    -27.644156
                ],
                "type": "Point"
            },
            "properties": {
                "name": "Tin Tin Chinese Takeaway QLD"
            },
            "type": "Feature"
        },
        {
            "geometry": {
                "coordinates": [
                    153.1189002,
                    -27.6439954
                ],
                "type": "Point"
            },
            "properties": {
                "name": "Domino's Pizza Logan Central QLD"
            },
            "type": "Feature"
        },
        {
            "geometry": {
                "coordinates": [
                    153.115824,
                    -27.623685
                ],
                "type": "Point"
            },
            "properties": {
                "name": "Booran Drive Snackbar QLD"
            },
            "type": "Feature"
        },
        {
            "geometry": {
                "coordinates": [
                    152.7888074,
                    -27.6137404
                ],
                "type": "Point"
            },
            "properties": {
                "name": "Hell Pizza QLD"
            },
            "type": "Feature"
        },
        {
            "geometry": {
                "coordinates": [
                    153.104723,
                    -27.6372557
                ],
                "type": "Point"
            },
            "properties": {
                "name": "Fish and Chips QLD"
            },
            "type": "Feature"
        },
        {
            "geometry": {
                "coordinates": [
                    153.1052232,
                    -27.6375372
                ],
                "type": "Point"
            },
            "properties": {
                "name": "Lebanes Pies QLD"
            },
            "type": "Feature"
        },
        {
            "geometry": {
                "coordinates": [
                    153.1072027,
                    -27.6403874
                ],
                "type": "Point"
            },
            "properties": {
                "name": "Tai Pak Chinese Takeaway QLD"
            },
            "type": "Feature"
        },
        {
            "geometry": {
                "coordinates": [
                    152.9966679,
                    -27.5014341
                ],
                "type": "Point"
            },
            "properties": {
                "name": "Pizza Capers QLD"
            },
            "type": "Feature"
        },
        {
            "geometry": {
                "coordinates": [
                    152.9886021,
                    -27.3040783
                ],
                "type": "Point"
            },
            "properties": {
                "name": "Hungrey Jacks QLD"
            },
            "type": "Feature"
        },
        {
            "geometry": {
                "coordinates": [
                    153.1979625,
                    -27.7186305
                ],
                "type": "Point"
            },
            "properties": {
                "name": "KFC QLD"
            },
            "type": "Feature"
        },
        {
            "geometry": {
                "coordinates": [
                    153.116959,
                    -27.660506
                ],
                "type": "Point"
            },
            "properties": {
                "name": "Chris's Takeaway QLD"
            },
            "type": "Feature"
        },
        {
            "geometry": {
                "coordinates": [
                    153.1034366,
                    -27.6375088
                ],
                "type": "Point"
            },
            "properties": {
                "name": "Fish And Chips QLD"
            },
            "type": "Feature"
        },
        {
            "geometry": {
                "coordinates": [
                    153.0794026,
                    -27.2606513
                ],
                "type": "Point"
            },
            "properties": {
                "name": "Subway QLD"
            },
            "type": "Feature"
        },
        {
            "geometry": {
                "coordinates": [
                    153.2846854,
                    -27.8996293
                ],
                "type": "Point"
            },
            "properties": {
                "name": "Goldsteins Bakery QLD"
            },
            "type": "Feature"
        },
        {
            "geometry": {
                "coordinates": [
                    153.2846425,
                    -27.8994586
                ],
                "type": "Point"
            },
            "properties": {
                "name": "Subway QLD"
            },
            "type": "Feature"
        },
        {
            "geometry": {
                "coordinates": [
                    152.6822725,
                    -27.9981708
                ],
                "type": "Point"
            },
            "properties": {
                "name": "Sugarloaf Bakery QLD"
            },
            "type": "Feature"
        },
        {
            "geometry": {
                "coordinates": [
                    152.6771753,
                    -25.5249293
                ],
                "type": "Point"
            },
            "properties": {
                "name": "Baddow Snack Bar QLD"
            },
            "type": "Feature"
        },
        {
            "geometry": {
                "coordinates": [
                    152.6889707,
                    -25.5326254
                ],
                "type": "Point"
            },
            "properties": {
                "name": "Woodfired Pizza QLD"
            },
            "type": "Feature"
        },
        {
            "geometry": {
                "coordinates": [
                    152.6833546,
                    -25.5458909
                ],
                "type": "Point"
            },
            "properties": {
                "name": "Iveys Chicken 'n' Carvery QLD"
            },
            "type": "Feature"
        },
        {
            "geometry": {
                "coordinates": [
                    153.0546209,
                    -27.6121174
                ],
                "type": "Point"
            },
            "properties": {
                "name": "McDonalds QLD"
            },
            "type": "Feature"
        },
        {
            "geometry": {
                "coordinates": [
                    152.9623945,
                    -27.40307
                ],
                "type": "Point"
            },
            "properties": {
                "name": "Thai@Grovelly QLD"
            },
            "type": "Feature"
        },
        {
            "geometry": {
                "coordinates": [
                    152.8714491,
                    -27.6454281
                ],
                "type": "Point"
            },
            "properties": {
                "name": "Pizza Hut QLD"
            },
            "type": "Feature"
        },
        {
            "geometry": {
                "coordinates": [
                    153.0210033,
                    -27.4686115
                ],
                "type": "Point"
            },
            "properties": {
                "name": "400 Food Court QLD"
            },
            "type": "Feature"
        },
        {
            "geometry": {
                "coordinates": [
                    152.4243483,
                    -27.5639671
                ],
                "type": "Point"
            },
            "properties": {
                "name": "Subway QLD"
            },
            "type": "Feature"
        },
        {
            "geometry": {
                "coordinates": [
                    152.4243953,
                    -27.5638493
                ],
                "type": "Point"
            },
            "properties": {
                "name": "Hungry Jacks QLD"
            },
            "type": "Feature"
        },
        {
            "geometry": {
                "coordinates": [
                    152.4245367,
                    -27.5639817
                ],
                "type": "Point"
            },
            "properties": {
                "name": "KFC QLD"
            },
            "type": "Feature"
        },
        {
            "geometry": {
                "coordinates": [
                    153.1399181,
                    -27.6676727
                ],
                "type": "Point"
            },
            "properties": {
                "name": "Red Rooster QLD"
            },
            "type": "Feature"
        },
        {
            "geometry": {
                "coordinates": [
                    153.1403874,
                    -27.6675772
                ],
                "type": "Point"
            },
            "properties": {
                "name": "Subway QLD"
            },
            "type": "Feature"
        },
        {
            "geometry": {
                "coordinates": [
                    153.1407318,
                    -27.6633006
                ],
                "type": "Point"
            },
            "properties": {
                "name": "Hungry Jacks Meadowbrook QLD"
            },
            "type": "Feature"
        },
        {
            "geometry": {
                "coordinates": [
                    153.0414443,
                    -27.4289134
                ],
                "type": "Point"
            },
            "properties": {
                "name": "Subway QLD"
            },
            "type": "Feature"
        },
        {
            "geometry": {
                "coordinates": [
                    153.0341827,
                    -27.4581602
                ],
                "type": "Point"
            },
            "properties": {
                "name": "Nandos QLD"
            },
            "type": "Feature"
        },
        {
            "geometry": {
                "coordinates": [
                    153.0354524,
                    -27.4586439
                ],
                "type": "Point"
            },
            "properties": {
                "name": "New York Slice Pizzeria QLD"
            },
            "type": "Feature"
        },
        {
            "geometry": {
                "coordinates": [
                    153.0304128,
                    -27.4620747
                ],
                "type": "Point"
            },
            "properties": {
                "name": "Subway QLD"
            },
            "type": "Feature"
        },
        {
            "geometry": {
                "coordinates": [
                    153.034071,
                    -27.4582645
                ],
                "type": "Point"
            },
            "properties": {
                "name": "Subway QLD"
            },
            "type": "Feature"
        },
        {
            "geometry": {
                "coordinates": [
                    153.0343515,
                    -27.4578034
                ],
                "type": "Point"
            },
            "properties": {
                "name": "McDonalds QLD"
            },
            "type": "Feature"
        },
        {
            "geometry": {
                "coordinates": [
                    153.0391442,
                    -27.452785
                ],
                "type": "Point"
            },
            "properties": {
                "name": "Guzman y Gomez QLD"
            },
            "type": "Feature"
        },
        {
            "geometry": {
                "coordinates": [
                    153.0378386,
                    -27.4525512
                ],
                "type": "Point"
            },
            "properties": {
                "name": "Subway QLD"
            },
            "type": "Feature"
        },
        {
            "geometry": {
                "coordinates": [
                    153.0412946,
                    -27.430033
                ],
                "type": "Point"
            },
            "properties": {
                "name": "Settlers Snack Bar QLD"
            },
            "type": "Feature"
        },
        {
            "geometry": {
                "coordinates": [
                    152.9491798,
                    -27.5360921
                ],
                "type": "Point"
            },
            "properties": {
                "name": "Eagle Boys Pizza JIndalee QLD"
            },
            "type": "Feature"
        },
        {
            "geometry": {
                "coordinates": [
                    153.066411,
                    -27.3212332
                ],
                "type": "Point"
            },
            "properties": {
                "name": "Burger Central QLD"
            },
            "type": "Feature"
        },
        {
            "geometry": {
                "coordinates": [
                    153.023957,
                    -27.2394274
                ],
                "type": "Point"
            },
            "properties": {
                "name": "Nessie's Fish Bite QLD"
            },
            "type": "Feature"
        },
        {
            "geometry": {
                "coordinates": [
                    153.0698905,
                    -27.3201234
                ],
                "type": "Point"
            },
            "properties": {
                "name": "Bus Stop Fast Food QLD"
            },
            "type": "Feature"
        },
        {
            "geometry": {
                "coordinates": [
                    152.9962902,
                    -27.2493322
                ],
                "type": "Point"
            },
            "properties": {
                "name": "Domino's pizza QLD"
            },
            "type": "Feature"
        },
        {
            "geometry": {
                "coordinates": [
                    153.0672679,
                    -27.610747
                ],
                "type": "Point"
            },
            "properties": {
                "name": "Subway QLD"
            },
            "type": "Feature"
        },
        {
            "geometry": {
                "coordinates": [
                    153.0673331,
                    -27.6108166
                ],
                "type": "Point"
            },
            "properties": {
                "name": "Fish and chips QLD"
            },
            "type": "Feature"
        },
        {
            "geometry": {
                "coordinates": [
                    153.0674083,
                    -27.6108859
                ],
                "type": "Point"
            },
            "properties": {
                "name": "Pizza hut QLD"
            },
            "type": "Feature"
        },
        {
            "geometry": {
                "coordinates": [
                    153.061007,
                    -27.314129
                ],
                "type": "Point"
            },
            "properties": {
                "name": "That takeaway QLD"
            },
            "type": "Feature"
        },
        {
            "geometry": {
                "coordinates": [
                    153.4011414,
                    -27.9127062
                ],
                "type": "Point"
            },
            "properties": {
                "name": "KFC QLD"
            },
            "type": "Feature"
        },
        {
            "geometry": {
                "coordinates": [
                    153.1609495,
                    -27.7100937
                ],
                "type": "Point"
            },
            "properties": {
                "name": "McDonald's QLD"
            },
            "type": "Feature"
        },
        {
            "geometry": {
                "coordinates": [
                    151.4891844,
                    -28.2947174
                ],
                "type": "Point"
            },
            "properties": {
                "name": "Gore Roadhouse QLD"
            },
            "type": "Feature"
        },
        {
            "geometry": {
                "coordinates": [
                    146.0283586,
                    -17.5269991
                ],
                "type": "Point"
            },
            "properties": {
                "name": "McDonalds QLD"
            },
            "type": "Feature"
        },
        {
            "geometry": {
                "coordinates": [
                    153.0853944,
                    -27.4937679
                ],
                "type": "Point"
            },
            "properties": {
                "name": "Red Rooster QLD"
            },
            "type": "Feature"
        },
        {
            "geometry": {
                "coordinates": [
                    153.0638672,
                    -27.491967
                ],
                "type": "Point"
            },
            "properties": {
                "name": "Pizza Hut QLD"
            },
            "type": "Feature"
        },
        {
            "geometry": {
                "coordinates": [
                    153.0640925,
                    -27.4917767
                ],
                "type": "Point"
            },
            "properties": {
                "name": "Subway QLD"
            },
            "type": "Feature"
        },
        {
            "geometry": {
                "coordinates": [
                    153.072322,
                    -27.529325
                ],
                "type": "Point"
            },
            "properties": {
                "name": "Dominos Pizza QLD"
            },
            "type": "Feature"
        },
        {
            "geometry": {
                "coordinates": [
                    148.1559612,
                    -23.5170648
                ],
                "type": "Point"
            },
            "properties": {
                "name": "Mcdonalds QLD"
            },
            "type": "Feature"
        },
        {
            "geometry": {
                "coordinates": [
                    153.081666,
                    -27.246302
                ],
                "type": "Point"
            },
            "properties": {
                "name": "McDonalds QLD"
            },
            "type": "Feature"
        },
        {
            "geometry": {
                "coordinates": [
                    153.0949184,
                    -27.4961793
                ],
                "type": "Point"
            },
            "properties": {
                "name": "Carina Seafoods QLD"
            },
            "type": "Feature"
        },
        {
            "geometry": {
                "coordinates": [
                    153.072476,
                    -27.5298
                ],
                "type": "Point"
            },
            "properties": {
                "name": "Pizza Hut QLD"
            },
            "type": "Feature"
        },
        {
            "geometry": {
                "coordinates": [
                    153.2084016,
                    -27.7286424
                ],
                "type": "Point"
            },
            "properties": {
                "name": "Mount Warren Seafood & Salad QLD"
            },
            "type": "Feature"
        },
        {
            "geometry": {
                "coordinates": [
                    153.2084499,
                    -27.7287469
                ],
                "type": "Point"
            },
            "properties": {
                "name": "Super Pizza QLD"
            },
            "type": "Feature"
        },
        {
            "geometry": {
                "coordinates": [
                    153.2027977,
                    -27.7159537
                ],
                "type": "Point"
            },
            "properties": {
                "name": "Noodle Box QLD"
            },
            "type": "Feature"
        },
        {
            "geometry": {
                "coordinates": [
                    153.2026099,
                    -27.7159347
                ],
                "type": "Point"
            },
            "properties": {
                "name": "Pizza Hut QLD"
            },
            "type": "Feature"
        },
        {
            "geometry": {
                "coordinates": [
                    153.2682143,
                    -27.5241971
                ],
                "type": "Point"
            },
            "properties": {
                "name": "Samson Seafood Cafe QLD"
            },
            "type": "Feature"
        },
        {
            "geometry": {
                "coordinates": [
                    153.2284432,
                    -27.7324475
                ],
                "type": "Point"
            },
            "properties": {
                "name": "McDonald's QLD"
            },
            "type": "Feature"
        },
        {
            "geometry": {
                "coordinates": [
                    153.2283268,
                    -27.7328506
                ],
                "type": "Point"
            },
            "properties": {
                "name": "Nando's QLD"
            },
            "type": "Feature"
        },
        {
            "geometry": {
                "coordinates": [
                    146.2415174,
                    -26.4040523
                ],
                "type": "Point"
            },
            "properties": {
                "name": "BP Burger QLD"
            },
            "type": "Feature"
        },
        {
            "geometry": {
                "coordinates": [
                    146.2583985,
                    -26.4129367
                ],
                "type": "Point"
            },
            "properties": {
                "name": "The Flight Deck Cafe QLD"
            },
            "type": "Feature"
        },
        {
            "geometry": {
                "coordinates": [
                    153.2305242,
                    -27.7351901
                ],
                "type": "Point"
            },
            "properties": {
                "name": "Subway Yatala QLD"
            },
            "type": "Feature"
        },
        {
            "geometry": {
                "coordinates": [
                    145.776791,
                    -17.084777
                ],
                "type": "Point"
            },
            "properties": {
                "name": "McDonalds QLD"
            },
            "type": "Feature"
        },
        {
            "geometry": {
                "coordinates": [
                    149.1819679,
                    -21.1404663
                ],
                "type": "Point"
            },
            "properties": {
                "name": "Hot Wok Express Noddle Bar QLD"
            },
            "type": "Feature"
        },
        {
            "geometry": {
                "coordinates": [
                    153.0015696,
                    -27.2494822
                ],
                "type": "Point"
            },
            "properties": {
                "name": "McDonalds QLD"
            },
            "type": "Feature"
        },
        {
            "geometry": {
                "coordinates": [
                    145.468026,
                    -16.51998
                ],
                "type": "Point"
            },
            "properties": {
                "name": "Otz Food QLD"
            },
            "type": "Feature"
        },
        {
            "geometry": {
                "coordinates": [
                    146.8062277,
                    -19.3092878
                ],
                "type": "Point"
            },
            "properties": {
                "name": "McDonalds Fairfield QLD"
            },
            "type": "Feature"
        },
        {
            "geometry": {
                "coordinates": [
                    146.782511,
                    -19.2707856
                ],
                "type": "Point"
            },
            "properties": {
                "name": "McDonalds The Lakes QLD"
            },
            "type": "Feature"
        },
        {
            "geometry": {
                "coordinates": [
                    146.759098,
                    -19.2751064
                ],
                "type": "Point"
            },
            "properties": {
                "name": "Hungry Jacks QLD"
            },
            "type": "Feature"
        },
        {
            "geometry": {
                "coordinates": [
                    145.5211818,
                    -16.5868523
                ],
                "type": "Point"
            },
            "properties": {
                "name": "Herbies Shack QLD"
            },
            "type": "Feature"
        },
        {
            "geometry": {
                "coordinates": [
                    145.6937369,
                    -16.8392194
                ],
                "type": "Point"
            },
            "properties": {
                "name": "Hungry Jack's QLD"
            },
            "type": "Feature"
        },
        {
            "geometry": {
                "coordinates": [
                    145.6938179,
                    -16.8396123
                ],
                "type": "Point"
            },
            "properties": {
                "name": "McDonald's QLD"
            },
            "type": "Feature"
        },
        {
            "geometry": {
                "coordinates": [
                    146.8135924,
                    -19.251716
                ],
                "type": "Point"
            },
            "properties": {
                "name": "Dominos Pizza QLD"
            },
            "type": "Feature"
        },
        {
            "geometry": {
                "coordinates": [
                    146.812085,
                    -19.2498573
                ],
                "type": "Point"
            },
            "properties": {
                "name": "Tonys Pizza QLD"
            },
            "type": "Feature"
        },
        {
            "geometry": {
                "coordinates": [
                    146.8220574,
                    -19.259986
                ],
                "type": "Point"
            },
            "properties": {
                "name": "Simply Tops QLD"
            },
            "type": "Feature"
        },
        {
            "geometry": {
                "coordinates": [
                    146.7964386,
                    -19.2662985
                ],
                "type": "Point"
            },
            "properties": {
                "name": "Echlin Street Fish Chips Burgers QLD"
            },
            "type": "Feature"
        },
        {
            "geometry": {
                "coordinates": [
                    150.5183856,
                    -23.3715683
                ],
                "type": "Point"
            },
            "properties": {
                "name": "Dominos QLD"
            },
            "type": "Feature"
        },
        {
            "geometry": {
                "coordinates": [
                    150.5189323,
                    -23.3710917
                ],
                "type": "Point"
            },
            "properties": {
                "name": "Subway QLD"
            },
            "type": "Feature"
        },
        {
            "geometry": {
                "coordinates": [
                    153.1611629,
                    -27.7103616
                ],
                "type": "Point"
            },
            "properties": {
                "name": "Subway QLD"
            },
            "type": "Feature"
        },
        {
            "geometry": {
                "coordinates": [
                    151.9439109,
                    -27.4513576
                ],
                "type": "Point"
            },
            "properties": {
                "name": "McDonald's QLD"
            },
            "type": "Feature"
        },