{
    "features": [
        {
            "geometry": {
                "coordinates": [
                    151.2623975,
                    -27.1812387
                ],
                "type": "Point"
            },
            "properties": {
                "name": "Jade Court Licensed Chinese Restaurant QLD"
            },
            "type": "Feature"
        },
        {
            "geometry": {
                "coordinates": [
                    151.2599691,
                    -27.1804743
                ],
                "type": "Point"
            },
            "properties": {
                "name": "Manor Motor Inn QLD"
            },
            "type": "Feature"
        },
        {
            "geometry": {
                "coordinates": [
                    151.9784803,
                    -27.5660658
                ],
                "type": "Point"
            },
            "properties": {
                "name": "The Toowoomba Motel & Event Centre QLD"
            },
            "type": "Feature"
        },
        {
            "geometry": {
                "coordinates": [
                    151.9785395,
                    -27.5659711
                ],
                "type": "Point"
            },
            "properties": {
                "name": "K's Restaurant QLD"
            },
            "type": "Feature"
        },
        {
            "geometry": {
                "coordinates": [
                    151.9787881,
                    -27.5660066
                ],
                "type": "Point"
            },
            "properties": {
                "name": "Lords Restaurant & Event Centre QLD"
            },
            "type": "Feature"
        },
        {
            "geometry": {
                "coordinates": [
                    151.9639829,
                    -27.5803532
                ],
                "type": "Point"
            },
            "properties": {
                "name": "Angel Cafe QLD"
            },
            "type": "Feature"
        },
        {
            "geometry": {
                "coordinates": [
                    151.963641,
                    -27.5802772
                ],
                "type": "Point"
            },
            "properties": {
                "name": "Thai Royal Restaurant QLD"
            },
            "type": "Feature"
        },
        {
            "geometry": {
                "coordinates": [
                    151.9643707,
                    -27.5534424
                ],
                "type": "Point"
            },
            "properties": {
                "name": "Futures - Student Training Restaurant QLD"
            },
            "type": "Feature"
        },
        {
            "geometry": {
                "coordinates": [
                    153.434746,
                    -28.0293035
                ],
                "type": "Point"
            },
            "properties": {
                "name": "Kurrawa Surf Club QLD"
            },
            "type": "Feature"
        },
        {
            "geometry": {
                "coordinates": [
                    153.0448428,
                    -27.441646
                ],
                "type": "Point"
            },
            "properties": {
                "name": "Breakfast Creek Wharf Restaurant QLD"
            },
            "type": "Feature"
        },
        {
            "geometry": {
                "coordinates": [
                    148.266029,
                    -20.014091
                ],
                "type": "Point"
            },
            "properties": {
                "name": "360 Restaurant interpretive centre QLD"
            },
            "type": "Feature"
        },
        {
            "geometry": {
                "coordinates": [
                    145.7806127,
                    -16.9204548
                ],
                "type": "Point"
            },
            "properties": {
                "name": "Shangri-La QLD"
            },
            "type": "Feature"
        },
        {
            "geometry": {
                "coordinates": [
                    152.9434131,
                    -27.3951072
                ],
                "type": "Point"
            },
            "properties": {
                "name": "Indian Appetie QLD"
            },
            "type": "Feature"
        },
        {
            "geometry": {
                "coordinates": [
                    151.9515319,
                    -27.5743201
                ],
                "type": "Point"
            },
            "properties": {
                "name": "Lotus Village Chinese Restaurant QLD"
            },
            "type": "Feature"
        },
        {
            "geometry": {
                "coordinates": [
                    145.340458,
                    -16.260158
                ],
                "type": "Point"
            },
            "properties": {
                "name": "Daintree Eco Lodge and Spa QLD"
            },
            "type": "Feature"
        },
        {
            "geometry": {
                "coordinates": [
                    145.6390147,
                    -17.2460145
                ],
                "type": "Point"
            },
            "properties": {
                "name": "Lake Barrine Tea House Restaurant QLD"
            },
            "type": "Feature"
        },
        {
            "geometry": {
                "coordinates": [
                    153.0341088,
                    -27.453165
                ],
                "type": "Point"
            },
            "properties": {
                "name": "Genghis Khan QLD"
            },
            "type": "Feature"
        },
        {
            "geometry": {
                "coordinates": [
                    153.0311326,
                    -27.4561594
                ],
                "type": "Point"
            },
            "properties": {
                "name": "Jong Ga QLD"
            },
            "type": "Feature"
        },
        {
            "geometry": {
                "coordinates": [
                    153.0304735,
                    -27.4575554
                ],
                "type": "Point"
            },
            "properties": {
                "name": "L'Academie Restaurant QLD"
            },
            "type": "Feature"
        },
        {
            "geometry": {
                "coordinates": [
                    153.0061571,
                    -27.4360478
                ],
                "type": "Point"
            },
            "properties": {
                "name": "Pepe's Mexican QLD"
            },
            "type": "Feature"
        },
        {
            "geometry": {
                "coordinates": [
                    152.9904965,
                    -27.4221776
                ],
                "type": "Point"
            },
            "properties": {
                "name": "Enoggera Lotus Room QLD"
            },
            "type": "Feature"
        },
        {
            "geometry": {
                "coordinates": [
                    153.0143823,
                    -27.5119671
                ],
                "type": "Point"
            },
            "properties": {
                "name": "Pizzeria 1760 QLD"
            },
            "type": "Feature"
        },
        {
            "geometry": {
                "coordinates": [
                    153.0410403,
                    -27.4629903
                ],
                "type": "Point"
            },
            "properties": {
                "name": "Chang Thai QLD"
            },
            "type": "Feature"
        },
        {
            "geometry": {
                "coordinates": [
                    153.0412871,
                    -27.4632194
                ],
                "type": "Point"
            },
            "properties": {
                "name": "Gerbino's Pasticceria QLD"
            },
            "type": "Feature"
        },
        {
            "geometry": {
                "coordinates": [
                    153.0411664,
                    -27.4631058
                ],
                "type": "Point"
            },
            "properties": {
                "name": "Himalayan Cafe QLD"
            },
            "type": "Feature"
        },
        {
            "geometry": {
                "coordinates": [
                    153.0480781,
                    -27.4684308
                ],
                "type": "Point"
            },
            "properties": {
                "name": "The Fish Cafe QLD"
            },
            "type": "Feature"
        },
        {
            "geometry": {
                "coordinates": [
                    153.043149,
                    -27.4700334
                ],
                "type": "Point"
            },
            "properties": {
                "name": "Vine Restaurant QLD"
            },
            "type": "Feature"
        },
        {
            "geometry": {
                "coordinates": [
                    153.0224251,
                    -27.4778681
                ],
                "type": "Point"
            },
            "properties": {
                "name": "Kapsali QLD"
            },
            "type": "Feature"
        },
        {
            "geometry": {
                "coordinates": [
                    153.0128484,
                    -27.4659452
                ],
                "type": "Point"
            },
            "properties": {
                "name": "Hog's Breath Cafe QLD"
            },
            "type": "Feature"
        },
        {
            "geometry": {
                "coordinates": [
                    152.9828084,
                    -27.4180157
                ],
                "type": "Point"
            },
            "properties": {
                "name": "Amazing Thai QLD"
            },
            "type": "Feature"
        },
        {
            "geometry": {
                "coordinates": [
                    153.0328677,
                    -27.4580691
                ],
                "type": "Point"
            },
            "properties": {
                "name": "The Vietnamese Restaurant QLD"
            },
            "type": "Feature"
        },
        {
            "geometry": {
                "coordinates": [
                    152.9913678,
                    -27.3644819
                ],
                "type": "Point"
            },
            "properties": {
                "name": "Thai Asian House QLD"
            },
            "type": "Feature"
        },
        {
            "geometry": {
                "coordinates": [
                    153.0493781,
                    -27.4532764
                ],
                "type": "Point"
            },
            "properties": {
                "name": "Eves on the River QLD"
            },
            "type": "Feature"
        },
        {
            "geometry": {
                "coordinates": [
                    153.04986,
                    -27.4545026
                ],
                "type": "Point"
            },
            "properties": {
                "name": "Aqua Linea QLD"
            },
            "type": "Feature"
        },
        {
            "geometry": {
                "coordinates": [
                    153.0504662,
                    -27.4637525
                ],
                "type": "Point"
            },
            "properties": {
                "name": "Casa Italia QLD"
            },
            "type": "Feature"
        },
        {
            "geometry": {
                "coordinates": [
                    153.0174541,
                    -27.3599557
                ],
                "type": "Point"
            },
            "properties": {
                "name": "Hog's Breath QLD"
            },
            "type": "Feature"
        },
        {
            "geometry": {
                "coordinates": [
                    153.0174255,
                    -27.3600653
                ],
                "type": "Point"
            },
            "properties": {
                "name": "Fasta Pasta QLD"
            },
            "type": "Feature"
        },
        {
            "geometry": {
                "coordinates": [
                    153.0041326,
                    -27.4527026
                ],
                "type": "Point"
            },
            "properties": {
                "name": "Olivettos QLD"
            },
            "type": "Feature"
        },
        {
            "geometry": {
                "coordinates": [
                    152.9970636,
                    -27.4654142
                ],
                "type": "Point"
            },
            "properties": {
                "name": "Grill'd QLD"
            },
            "type": "Feature"
        },
        {
            "geometry": {
                "coordinates": [
                    152.9975289,
                    -27.4660539
                ],
                "type": "Point"
            },
            "properties": {
                "name": "Thai Terrace QLD"
            },
            "type": "Feature"
        },
        {
            "geometry": {
                "coordinates": [
                    153.0143539,
                    -27.4616647
                ],
                "type": "Point"
            },
            "properties": {
                "name": "Tibetan Kitchen QLD"
            },
            "type": "Feature"
        },
        {
            "geometry": {
                "coordinates": [
                    153.18649,
                    -27.4541264
                ],
                "type": "Point"
            },
            "properties": {
                "name": "The Fish Cafe QLD"
            },
            "type": "Feature"
        },
        {
            "geometry": {
                "coordinates": [
                    153.03063,
                    -27.46912
                ],
                "type": "Point"
            },
            "properties": {
                "name": "Cha Cha Char QLD"
            },
            "type": "Feature"
        },
        {
            "geometry": {
                "coordinates": [
                    153.03066,
                    -27.46926
                ],
                "type": "Point"
            },
            "properties": {
                "name": "Vino's QLD"
            },
            "type": "Feature"
        },
        {
            "geometry": {
                "coordinates": [
                    153.05824,
                    -27.50526
                ],
                "type": "Point"
            },
            "properties": {
                "name": "Wild Pepper Pizzeria QLD"
            },
            "type": "Feature"
        },
        {
            "geometry": {
                "coordinates": [
                    153.0581,
                    -27.50528
                ],
                "type": "Point"
            },
            "properties": {
                "name": "Thai Phoenix QLD"
            },
            "type": "Feature"
        },
        {
            "geometry": {
                "coordinates": [
                    153.0474558,
                    -27.4283303
                ],
                "type": "Point"
            },
            "properties": {
                "name": "Kow Thai QLD"
            },
            "type": "Feature"
        },
        {
            "geometry": {
                "coordinates": [
                    153.04056,
                    -27.48714
                ],
                "type": "Point"
            },
            "properties": {
                "name": "Maxim's Chinese and Thai QLD"
            },
            "type": "Feature"
        },
        {
            "geometry": {
                "coordinates": [
                    153.0194441,
                    -27.4326152
                ],
                "type": "Point"
            },
            "properties": {
                "name": "Citron QLD"
            },
            "type": "Feature"
        },
        {
            "geometry": {
                "coordinates": [
                    153.0194902,
                    -27.4323512
                ],
                "type": "Point"
            },
            "properties": {
                "name": "Earth and Sea Pizza & Pasta QLD"
            },
            "type": "Feature"
        },
        {
            "geometry": {
                "coordinates": [
                    153.0193708,
                    -27.4320924
                ],
                "type": "Point"
            },
            "properties": {
                "name": "Thai Kitchen QLD"
            },
            "type": "Feature"
        },
        {
            "geometry": {
                "coordinates": [
                    153.0200419,
                    -27.4325365
                ],
                "type": "Point"
            },
            "properties": {
                "name": "Fuse Bistro QLD"
            },
            "type": "Feature"
        },
        {
            "geometry": {
                "coordinates": [
                    153.0201122,
                    -27.4326531
                ],
                "type": "Point"
            },
            "properties": {
                "name": "Tomato Brothers QLD"
            },
            "type": "Feature"
        },
        {
            "geometry": {
                "coordinates": [
                    153.0200279,
                    -27.4330227
                ],
                "type": "Point"
            },
            "properties": {
                "name": "Mr Wongs Chinese Restaurant & Takeaway QLD"
            },
            "type": "Feature"
        },
        {
            "geometry": {
                "coordinates": [
                    153.0277376,
                    -27.467163
                ],
                "type": "Point"
            },
            "properties": {
                "name": "Rush Dining/Bar/Express QLD"
            },
            "type": "Feature"
        },
        {
            "geometry": {
                "coordinates": [
                    152.9742707,
                    -27.4111073
                ],
                "type": "Point"
            },
            "properties": {
                "name": "El Taco Mexican BYO QLD"
            },
            "type": "Feature"
        },
        {
            "geometry": {
                "coordinates": [
                    152.974273,
                    -27.4112618
                ],
                "type": "Point"
            },
            "properties": {
                "name": "Zanetti's QLD"
            },
            "type": "Feature"
        },
        {
            "geometry": {
                "coordinates": [
                    152.97425,
                    -27.4115212
                ],
                "type": "Point"
            },
            "properties": {
                "name": "Pasta la Pizza QLD"
            },
            "type": "Feature"
        },
        {
            "geometry": {
                "coordinates": [
                    152.9745187,
                    -27.4121752
                ],
                "type": "Point"
            },
            "properties": {
                "name": "Gum Do Chinese Restaurant QLD"
            },
            "type": "Feature"
        },
        {
            "geometry": {
                "coordinates": [
                    152.7170792,
                    -24.1136951
                ],
                "type": "Point"
            },
            "properties": {
                "name": "Lagoon Bar and Dining QLD"
            },
            "type": "Feature"
        },
        {
            "geometry": {
                "coordinates": [
                    153.0707545,
                    -27.4366603
                ],
                "type": "Point"
            },
            "properties": {
                "name": "Seagrill QLD"
            },
            "type": "Feature"
        },
        {
            "geometry": {
                "coordinates": [
                    153.0642489,
                    -27.4382604
                ],
                "type": "Point"
            },
            "properties": {
                "name": "Vagelis QLD"
            },
            "type": "Feature"
        },
        {
            "geometry": {
                "coordinates": [
                    153.067107,
                    -27.4185009
                ],
                "type": "Point"
            },
            "properties": {
                "name": "The Hamptons QLD"
            },
            "type": "Feature"
        },
        {
            "geometry": {
                "coordinates": [
                    153.0636117,
                    -27.4226209
                ],
                "type": "Point"
            },
            "properties": {
                "name": "Thai Naramit QLD"
            },
            "type": "Feature"
        },
        {
            "geometry": {
                "coordinates": [
                    153.063301,
                    -27.4865926
                ],
                "type": "Point"
            },
            "properties": {
                "name": "Sakura Japanese Restaurant QLD"
            },
            "type": "Feature"
        },
        {
            "geometry": {
                "coordinates": [
                    153.0546986,
                    -27.4194256
                ],
                "type": "Point"
            },
            "properties": {
                "name": "Sultan's Kitchen QLD"
            },
            "type": "Feature"
        },
        {
            "geometry": {
                "coordinates": [
                    153.0591303,
                    -27.4728639
                ],
                "type": "Point"
            },
            "properties": {
                "name": "Chang Rai Thai QLD"
            },
            "type": "Feature"
        },
        {
            "geometry": {
                "coordinates": [
                    153.0645807,
                    -27.4670585
                ],
                "type": "Point"
            },
            "properties": {
                "name": "Simply Dishy QLD"
            },
            "type": "Feature"
        },
        {
            "geometry": {
                "coordinates": [
                    153.0727861,
                    -27.4679419
                ],
                "type": "Point"
            },
            "properties": {
                "name": "Curryville QLD"
            },
            "type": "Feature"
        },
        {
            "geometry": {
                "coordinates": [
                    153.1151481,
                    -27.2283331
                ],
                "type": "Point"
            },
            "properties": {
                "name": "Redcliffe Redefined QLD"
            },
            "type": "Feature"
        },
        {
            "geometry": {
                "coordinates": [
                    152.9758206,
                    -27.5212983
                ],
                "type": "Point"
            },
            "properties": {
                "name": "Il Viale QLD"
            },
            "type": "Feature"
        },
        {
            "geometry": {
                "coordinates": [
                    153.0160661,
                    -27.4970628
                ],
                "type": "Point"
            },
            "properties": {
                "name": "Pizza Caffe QLD"
            },
            "type": "Feature"
        },
        {
            "geometry": {
                "coordinates": [
                    153.0389472,
                    -27.5155512
                ],
                "type": "Point"
            },
            "properties": {
                "name": "The Pink Salmon QLD"
            },
            "type": "Feature"
        },
        {
            "geometry": {
                "coordinates": [
                    153.0390215,
                    -27.515572
                ],
                "type": "Point"
            },
            "properties": {
                "name": "Thai Gold Singha QLD"
            },
            "type": "Feature"
        },
        {
            "geometry": {
                "coordinates": [
                    153.0510401,
                    -27.5075445
                ],
                "type": "Point"
            },
            "properties": {
                "name": "Chop Chop QLD"
            },
            "type": "Feature"
        },
        {
            "geometry": {
                "coordinates": [
                    153.0503445,
                    -27.5074713
                ],
                "type": "Point"
            },
            "properties": {
                "name": "Miss India QLD"
            },
            "type": "Feature"
        },
        {
            "geometry": {
                "coordinates": [
                    153.0707289,
                    -27.4788543
                ],
                "type": "Point"
            },
            "properties": {
                "name": "Golden Buddha QLD"
            },
            "type": "Feature"
        },
        {
            "geometry": {
                "coordinates": [
                    153.0129644,
                    -27.3843822
                ],
                "type": "Point"
            },
            "properties": {
                "name": "Jothi Palace QLD"
            },
            "type": "Feature"
        },
        {
            "geometry": {
                "coordinates": [
                    153.1294026,
                    -27.6250124
                ],
                "type": "Point"
            },
            "properties": {
                "name": "Kam Koon QLD"
            },
            "type": "Feature"
        },
        {
            "geometry": {
                "coordinates": [
                    153.0059015,
                    -27.4358265
                ],
                "type": "Point"
            },
            "properties": {
                "name": "Teppanyaki QLD"
            },
            "type": "Feature"
        },
        {
            "geometry": {
                "coordinates": [
                    153.0313071,
                    -27.5122985
                ],
                "type": "Point"
            },
            "properties": {
                "name": "Fasta Pasta QLD"
            },
            "type": "Feature"
        },
        {
            "geometry": {
                "coordinates": [
                    153.0318523,
                    -27.5110323
                ],
                "type": "Point"
            },
            "properties": {
                "name": "Thai Kanjana QLD"
            },
            "type": "Feature"
        },
        {
            "geometry": {
                "coordinates": [
                    153.4286884,
                    -28.0021197
                ],
                "type": "Point"
            },
            "properties": {
                "name": "Hard Rock Cafe QLD"
            },
            "type": "Feature"
        },
        {
            "geometry": {
                "coordinates": [
                    153.0706829,
                    -27.4791011
                ],
                "type": "Point"
            },
            "properties": {
                "name": "Pitari's QLD"
            },
            "type": "Feature"
        },
        {
            "geometry": {
                "coordinates": [
                    153.0312789,
                    -27.5112937
                ],
                "type": "Point"
            },
            "properties": {
                "name": "Great Cafe & Restaurant QLD"
            },
            "type": "Feature"
        },
        {
            "geometry": {
                "coordinates": [
                    153.0326894,
                    -27.510319
                ],
                "type": "Point"
            },
            "properties": {
                "name": "Groove Cafe QLD"
            },
            "type": "Feature"
        },
        {
            "geometry": {
                "coordinates": [
                    153.0297081,
                    -27.5184904
                ],
                "type": "Point"
            },
            "properties": {
                "name": "Thai at Chardons QLD"
            },
            "type": "Feature"
        },
        {
            "geometry": {
                "coordinates": [
                    153.5437251,
                    -27.4331937
                ],
                "type": "Point"
            },
            "properties": {
                "name": "Fishes Cafe QLD"
            },
            "type": "Feature"
        },
        {
            "geometry": {
                "coordinates": [
                    153.5428556,
                    -27.4323269
                ],
                "type": "Point"
            },
            "properties": {
                "name": "French Ease QLD"
            },
            "type": "Feature"
        },
        {
            "geometry": {
                "coordinates": [
                    153.0472804,
                    -27.5231578
                ],
                "type": "Point"
            },
            "properties": {
                "name": "Bay Leaf Indian QLD"
            },
            "type": "Feature"
        },
        {
            "geometry": {
                "coordinates": [
                    153.1886606,
                    -27.452899
                ],
                "type": "Point"
            },
            "properties": {
                "name": "MBTBC QLD"
            },
            "type": "Feature"
        },
        {
            "geometry": {
                "coordinates": [
                    153.0346812,
                    -27.5038297
                ],
                "type": "Point"
            },
            "properties": {
                "name": "Kanta's Curry Place QLD"
            },
            "type": "Feature"
        },
        {
            "geometry": {
                "coordinates": [
                    153.1486426,
                    -27.0314092
                ],
                "type": "Point"
            },
            "properties": {
                "name": "Pacific Harbour Golf Club QLD"
            },
            "type": "Feature"
        },
        {
            "geometry": {
                "coordinates": [
                    152.9923267,
                    -27.5031395
                ],
                "type": "Point"
            },
            "properties": {
                "name": "Hundred Acre Bar QLD"
            },
            "type": "Feature"
        },
        {
            "geometry": {
                "coordinates": [
                    153.0698222,
                    -27.4695796
                ],
                "type": "Point"
            },
            "properties": {
                "name": "Morningside Thai QLD"
            },
            "type": "Feature"
        },
        {
            "geometry": {
                "coordinates": [
                    153.0699351,
                    -27.4693254
                ],
                "type": "Point"
            },
            "properties": {
                "name": "Miss India QLD"
            },
            "type": "Feature"
        },
        {
            "geometry": {
                "coordinates": [
                    153.3614941,
                    -27.6203388
                ],
                "type": "Point"
            },
            "properties": {
                "name": "Darios Gourmet Pizzaria QLD"
            },
            "type": "Feature"
        },
        {
            "geometry": {
                "coordinates": [
                    153.0115208,
                    -27.4809803
                ],
                "type": "Point"
            },
            "properties": {
                "name": "Huong's QLD"
            },
            "type": "Feature"
        },
        {
            "geometry": {
                "coordinates": [
                    153.0123925,
                    -27.4797874
                ],
                "type": "Point"
            },
            "properties": {
                "name": "Ouzeri QLD"
            },
            "type": "Feature"
        },
        {
            "geometry": {
                "coordinates": [
                    153.0124723,
                    -27.4773254
                ],
                "type": "Point"
            },
            "properties": {
                "name": "Gunshop Cafe QLD"
            },
            "type": "Feature"
        },
        {
            "geometry": {
                "coordinates": [
                    153.0767942,
                    -27.5006391
                ],
                "type": "Point"
            },
            "properties": {
                "name": "Pizza Capers QLD"
            },
            "type": "Feature"
        },
        {
            "geometry": {
                "coordinates": [
                    152.7808204,
                    -27.6130172
                ],
                "type": "Point"
            },
            "properties": {
                "name": "Sizzler QLD"
            },
            "type": "Feature"
        },
        {
            "geometry": {
                "coordinates": [
                    153.0138423,
                    -27.4766068
                ],
                "type": "Point"
            },
            "properties": {
                "name": "West End Gardens QLD"
            },
            "type": "Feature"
        },
        {
            "geometry": {
                "coordinates": [
                    153.0135703,
                    -27.4767747
                ],
                "type": "Point"
            },
            "properties": {
                "name": "Ceylon Dine In Style QLD"
            },
            "type": "Feature"
        },
        {
            "geometry": {
                "coordinates": [
                    153.0188442,
                    -27.4823959
                ],
                "type": "Point"
            },
            "properties": {
                "name": "Sakura Japanese Restaurant QLD"
            },
            "type": "Feature"
        },
        {
            "geometry": {
                "coordinates": [
                    153.0479256,
                    -26.6713151
                ],
                "type": "Point"
            },
            "properties": {
                "name": "Harry's on Buderim QLD"
            },
            "type": "Feature"
        },
        {
            "geometry": {
                "coordinates": [
                    153.0632001,
                    -27.5069173
                ],
                "type": "Point"
            },
            "properties": {
                "name": "Sig's Asian Kitchen QLD"
            },
            "type": "Feature"
        },
        {
            "geometry": {
                "coordinates": [
                    153.0631228,
                    -27.5068524
                ],
                "type": "Point"
            },
            "properties": {
                "name": "Sitar QLD"
            },
            "type": "Feature"
        },
        {
            "geometry": {
                "coordinates": [
                    153.0632867,
                    -27.5069827
                ],
                "type": "Point"
            },
            "properties": {
                "name": "Earth and Sea QLD"
            },
            "type": "Feature"
        },
        {
            "geometry": {
                "coordinates": [
                    153.0632976,
                    -27.5064538
                ],
                "type": "Point"
            },
            "properties": {
                "name": "Sultans Kitchen QLD"
            },
            "type": "Feature"
        },
        {
            "geometry": {
                "coordinates": [
                    153.025582,
                    -27.4709205
                ],
                "type": "Point"
            },
            "properties": {
                "name": "Govindas QLD"
            },
            "type": "Feature"
        },
        {
            "geometry": {
                "coordinates": [
                    153.0123228,
                    -27.4766771
                ],
                "type": "Point"
            },
            "properties": {
                "name": "Siam Samrarn QLD"
            },
            "type": "Feature"
        },
        {
            "geometry": {
                "coordinates": [
                    152.9803287,
                    -27.4921088
                ],
                "type": "Point"
            },
            "properties": {
                "name": "Azabu Japanese Restaurant QLD"
            },
            "type": "Feature"
        },
        {
            "geometry": {
                "coordinates": [
                    152.9833018,
                    -27.491721
                ],
                "type": "Point"
            },
            "properties": {
                "name": "Indian Mehfil QLD"
            },
            "type": "Feature"
        },
        {
            "geometry": {
                "coordinates": [
                    152.9800149,
                    -27.4924895
                ],
                "type": "Point"
            },
            "properties": {
                "name": "Montezuma's QLD"
            },
            "type": "Feature"
        },
        {
            "geometry": {
                "coordinates": [
                    152.9794972,
                    -27.4926667
                ],
                "type": "Point"
            },
            "properties": {
                "name": "Dos Amigos QLD"
            },
            "type": "Feature"
        },
        {
            "geometry": {
                "coordinates": [
                    152.9797681,
                    -27.4926584
                ],
                "type": "Point"
            },
            "properties": {
                "name": "Yuet Wah Chinese Restaurant QLD"
            },
            "type": "Feature"
        },
        {
            "geometry": {
                "coordinates": [
                    152.9891691,
                    -27.4777727
                ],
                "type": "Point"
            },
            "properties": {
                "name": "Jako QLD"
            },
            "type": "Feature"
        },
        {
            "geometry": {
                "coordinates": [
                    153.0606548,
                    -27.3488762
                ],
                "type": "Point"
            },
            "properties": {
                "name": "Maharani Indian Restaurant & Takeaway QLD"
            },
            "type": "Feature"
        },
        {
            "geometry": {
                "coordinates": [
                    153.0608211,
                    -27.3528309
                ],
                "type": "Point"
            },
            "properties": {
                "name": "Golden Bamboo Chinese Restaurant QLD"
            },
            "type": "Feature"
        },
        {
            "geometry": {
                "coordinates": [
                    152.8866613,
                    -27.3718195
                ],
                "type": "Point"
            },
            "properties": {
                "name": "Samford Seafood & Gourmet Pizza QLD"
            },
            "type": "Feature"
        },
        {
            "geometry": {
                "coordinates": [
                    153.0268741,
                    -27.474067
                ],
                "type": "Point"
            },
            "properties": {
                "name": "Jack's Cafe QLD"
            },
            "type": "Feature"
        },
        {
            "geometry": {
                "coordinates": [
                    153.0285116,
                    -27.472231
                ],
                "type": "Point"
            },
            "properties": {
                "name": "Margret Street Bar and Bistro QLD"
            },
            "type": "Feature"
        },
        {
            "geometry": {
                "coordinates": [
                    153.0297791,
                    -27.4716872
                ],
                "type": "Point"
            },
            "properties": {
                "name": "Port Office Dining Room QLD"
            },
            "type": "Feature"
        },
        {
            "geometry": {
                "coordinates": [
                    153.0300724,
                    -27.4720112
                ],
                "type": "Point"
            },
            "properties": {
                "name": "Gianni's QLD"
            },
            "type": "Feature"
        },
        {
            "geometry": {
                "coordinates": [
                    153.0303895,
                    -27.4721014
                ],
                "type": "Point"
            },
            "properties": {
                "name": "II QLD"
            },
            "type": "Feature"
        },
        {
            "geometry": {
                "coordinates": [
                    153.0303055,
                    -27.4715051
                ],
                "type": "Point"
            },
            "properties": {
                "name": "Moo Moo QLD"
            },
            "type": "Feature"
        },
        {
            "geometry": {
                "coordinates": [
                    153.030134,
                    -27.4646234
                ],
                "type": "Point"
            },
            "properties": {
                "name": "Taros QLD"
            },
            "type": "Feature"
        },
        {
            "geometry": {
                "coordinates": [
                    153.0268756,
                    -27.4722294
                ],
                "type": "Point"
            },
            "properties": {
                "name": "Han Woo Ri QLD"
            },
            "type": "Feature"
        },
        {
            "geometry": {
                "coordinates": [
                    153.0305754,
                    -27.4710145
                ],
                "type": "Point"
            },
            "properties": {
                "name": "Kabuki QLD"
            },
            "type": "Feature"
        },
        {
            "geometry": {
                "coordinates": [
                    153.0244718,
                    -27.4685386
                ],
                "type": "Point"
            },
            "properties": {
                "name": "Ph\u00fac Deli Viet QLD"
            },
            "type": "Feature"
        },
        {
            "geometry": {
                "coordinates": [
                    145.776177,
                    -16.91872
                ],
                "type": "Point"
            },
            "properties": {
                "name": "Villa Romana QLD"
            },
            "type": "Feature"
        },
        {
            "geometry": {
                "coordinates": [
                    153.4313445,
                    -28.0284279
                ],
                "type": "Point"
            },
            "properties": {
                "name": "Koi QLD"
            },
            "type": "Feature"
        },
        {
            "geometry": {
                "coordinates": [
                    152.6511488,
                    -27.4537316
                ],
                "type": "Point"
            },
            "properties": {
                "name": "CJ's White Light Cafe QLD"
            },
            "type": "Feature"
        },
        {
            "geometry": {
                "coordinates": [
                    153.4398942,
                    -28.0671172
                ],
                "type": "Point"
            },
            "properties": {
                "name": "Indian Delights QLD"
            },
            "type": "Feature"
        },
        {
            "geometry": {
                "coordinates": [
                    153.096623,
                    -27.5183007
                ],
                "type": "Point"
            },
            "properties": {
                "name": "Roman Empire Bar-Restaurant QLD"
            },
            "type": "Feature"
        },
        {
            "geometry": {
                "coordinates": [
                    153.3813245,
                    -27.6485647
                ],
                "type": "Point"
            },
            "properties": {
                "name": "Shanghai Garden Chinese QLD"
            },
            "type": "Feature"
        },
        {
            "geometry": {
                "coordinates": [
                    153.382658,
                    -27.6469106
                ],
                "type": "Point"
            },
            "properties": {
                "name": "Aunty Alices Cafe QLD"
            },
            "type": "Feature"
        },
        {
            "geometry": {
                "coordinates": [
                    145.6358438,
                    -16.8195501
                ],
                "type": "Point"
            },
            "properties": {
                "name": "Rainforest View Restaurant QLD"
            },
            "type": "Feature"
        },
        {
            "geometry": {
                "coordinates": [
                    152.8804944,
                    -26.781423
                ],
                "type": "Point"
            },
            "properties": {
                "name": "Mountain Views Cafe QLD"
            },
            "type": "Feature"
        },
        {
            "geometry": {
                "coordinates": [
                    153.1863641,
                    -27.4539437
                ],
                "type": "Point"
            },
            "properties": {
                "name": "Oliver's QLD"
            },
            "type": "Feature"
        },
        {
            "geometry": {
                "coordinates": [
                    152.9873408,
                    -27.4583358
                ],
                "type": "Point"
            },
            "properties": {
                "name": "Wokinabox QLD"
            },
            "type": "Feature"
        },
        {
            "geometry": {
                "coordinates": [
                    152.9952772,
                    -27.4581099
                ],
                "type": "Point"
            },
            "properties": {
                "name": "Indus QLD"
            },
            "type": "Feature"
        },
        {
            "geometry": {
                "coordinates": [
                    153.022574,
                    -27.479454
                ],
                "type": "Point"
            },
            "properties": {
                "name": "Gandi QLD"
            },
            "type": "Feature"
        },
        {
            "geometry": {
                "coordinates": [
                    153.0076272,
                    -27.4369245
                ],
                "type": "Point"
            },
            "properties": {
                "name": "Toscanis QLD"
            },
            "type": "Feature"
        },
        {
            "geometry": {
                "coordinates": [
                    153.013797,
                    -27.3620627
                ],
                "type": "Point"
            },
            "properties": {
                "name": "Aspley Oriental QLD"
            },
            "type": "Feature"
        },
        {
            "geometry": {
                "coordinates": [
                    152.7724833,
                    -27.080337
                ],
                "type": "Point"
            },
            "properties": {
                "name": "Birches Restaurant QLD"
            },
            "type": "Feature"
        },
        {
            "geometry": {
                "coordinates": [
                    153.00563,
                    -27.4531181
                ],
                "type": "Point"
            },
            "properties": {
                "name": "Biagio QLD"
            },
            "type": "Feature"
        },
        {
            "geometry": {
                "coordinates": [
                    153.0066224,
                    -27.4547343
                ],
                "type": "Point"
            },
            "properties": {
                "name": "Mamm's Thai Noodle and Rice QLD"
            },
            "type": "Feature"
        },
        {
            "geometry": {
                "coordinates": [
                    153.3372102,
                    -27.8652378
                ],
                "type": "Point"
            },
            "properties": {
                "name": "R Restaurant | Bar QLD"
            },
            "type": "Feature"
        },
        {
            "geometry": {
                "coordinates": [
                    153.314634,
                    -27.873025
                ],
                "type": "Point"
            },
            "properties": {
                "name": "Somni Steak and Seafood QLD"
            },
            "type": "Feature"
        },
        {
            "geometry": {
                "coordinates": [
                    153.3492058,
                    -27.8688488
                ],
                "type": "Point"
            },
            "properties": {
                "name": "The Boardwalk Tavern QLD"
            },
            "type": "Feature"
        },
        {
            "geometry": {
                "coordinates": [
                    153.0814943,
                    -27.5241231
                ],
                "type": "Point"
            },
            "properties": {
                "name": "Lily Pond QLD"
            },
            "type": "Feature"
        },
        {
            "geometry": {
                "coordinates": [
                    153.0806859,
                    -27.5239797
                ],
                "type": "Point"
            },
            "properties": {
                "name": "Seafood Platter QLD"
            },
            "type": "Feature"
        },
        {
            "geometry": {
                "coordinates": [
                    153.300056,
                    -27.8517479
                ],
                "type": "Point"
            },
            "properties": {
                "name": "Chef's Cuisine Chinese QLD"
            },
            "type": "Feature"
        },
        {
            "geometry": {
                "coordinates": [
                    153.2999407,
                    -27.8517764
                ],
                "type": "Point"
            },
            "properties": {
                "name": "Wild Oats QLD"
            },
            "type": "Feature"
        },
        {
            "geometry": {
                "coordinates": [
                    153.2999595,
                    -27.8515949
                ],
                "type": "Point"
            },
            "properties": {
                "name": "Da Pinto's Ristorante and Pizzaria QLD"
            },
            "type": "Feature"
        },
        {
            "geometry": {
                "coordinates": [
                    153.0144869,
                    -27.4541666
                ],
                "type": "Point"
            },
            "properties": {
                "name": "Happy Yummy QLD"
            },
            "type": "Feature"
        },
        {
            "geometry": {
                "coordinates": [
                    153.0145585,
                    -27.4541804
                ],
                "type": "Point"
            },
            "properties": {
                "name": "Little Lilly QLD"
            },
            "type": "Feature"
        },
        {
            "geometry": {
                "coordinates": [
                    153.0463368,
                    -27.4671551
                ],
                "type": "Point"
            },
            "properties": {
                "name": "Siam Square Thai QLD"
            },
            "type": "Feature"
        },
        {
            "geometry": {
                "coordinates": [
                    152.993697,
                    -27.4457815
                ],
                "type": "Point"
            },
            "properties": {
                "name": "True Thai Cook QLD"
            },
            "type": "Feature"
        },
        {
            "geometry": {
                "coordinates": [
                    152.9941463,
                    -27.4453959
                ],
                "type": "Point"
            },
            "properties": {
                "name": "Ashgrove Chinese Kitchen QLD"
            },
            "type": "Feature"
        },
        {
            "geometry": {
                "coordinates": [
                    152.9864503,
                    -27.4578907
                ],
                "type": "Point"
            },
            "properties": {
                "name": "Andrikos Seafood QLD"
            },
            "type": "Feature"
        },
        {
            "geometry": {
                "coordinates": [
                    152.986721,
                    -27.4579253
                ],
                "type": "Point"
            },
            "properties": {
                "name": "Mundo Churrasco QLD"
            },
            "type": "Feature"
        },
        {
            "geometry": {
                "coordinates": [
                    152.9784302,
                    -27.4494055
                ],
                "type": "Point"
            },
            "properties": {
                "name": "Green Mango QLD"
            },
            "type": "Feature"
        },
        {
            "geometry": {
                "coordinates": [
                    148.947575,
                    -20.3453024
                ],
                "type": "Point"
            },
            "properties": {
                "name": "Bommie QLD"
            },
            "type": "Feature"
        },
        {
            "geometry": {
                "coordinates": [
                    148.956228,
                    -20.345515
                ],
                "type": "Point"
            },
            "properties": {
                "name": "Sails QLD"
            },
            "type": "Feature"
        },
        {
            "geometry": {
                "coordinates": [
                    145.4637846,
                    -16.4820409
                ],
                "type": "Point"
            },
            "properties": {
                "name": "Mango Jam QLD"
            },
            "type": "Feature"
        },
        {
            "geometry": {
                "coordinates": [
                    153.2013133,
                    -27.9242422
                ],
                "type": "Point"
            },
            "properties": {
                "name": "Masala Shanti QLD"
            },
            "type": "Feature"
        },
        {
            "geometry": {
                "coordinates": [
                    145.2229768,
                    -15.7064474
                ],
                "type": "Point"
            },
            "properties": {
                "name": "The Lions Den Hotel QLD"
            },
            "type": "Feature"
        },
        {
            "geometry": {
                "coordinates": [
                    153.0058618,
                    -27.5021444
                ],
                "type": "Point"
            },
            "properties": {
                "name": "Curry Connection QLD"
            },
            "type": "Feature"
        },
        {
            "geometry": {
                "coordinates": [
                    153.100289,
                    -26.61477
                ],
                "type": "Point"
            },
            "properties": {
                "name": "The Loaded Lizard QLD"
            },
            "type": "Feature"
        },
        {
            "geometry": {
                "coordinates": [
                    153.1074101,
                    -27.5489334
                ],
                "type": "Point"
            },
            "properties": {
                "name": "Doninis QLD"
            },
            "type": "Feature"
        },
        {
            "geometry": {
                "coordinates": [
                    146.0965418,
                    -17.9049023
                ],
                "type": "Point"
            },
            "properties": {
                "name": "Miller's Beach Bar & Grill QLD"
            },
            "type": "Feature"
        },
        {
            "geometry": {
                "coordinates": [
                    145.4758552,
                    -17.2654182
                ],
                "type": "Point"
            },
            "properties": {
                "name": "Hot Wok Indonesian Bistro QLD"
            },
            "type": "Feature"
        },
        {
            "geometry": {
                "coordinates": [
                    153.3247494,
                    -27.574243
                ],
                "type": "Point"
            },
            "properties": {
                "name": "Finas Restaurant QLD"
            },
            "type": "Feature"
        },
        {
            "geometry": {
                "coordinates": [
                    153.2280136,
                    -27.7369781
                ],
                "type": "Point"
            },
            "properties": {
                "name": "Lloyds Restaurant QLD"
            },
            "type": "Feature"
        },
        {
            "geometry": {
                "coordinates": [
                    152.9967202,
                    -27.501509
                ],
                "type": "Point"
            },
            "properties": {
                "name": "Ironside Family QLD"
            },
            "type": "Feature"
        },
        {
            "geometry": {
                "coordinates": [
                    153.2047303,
                    -27.7119297
                ],
                "type": "Point"
            },
            "properties": {
                "name": "Beenleigh Sports Club QLD"
            },
            "type": "Feature"
        },
        {
            "geometry": {
                "coordinates": [
                    153.1189144,
                    -27.6439449
                ],
                "type": "Point"
            },
            "properties": {
                "name": "Lime And Chilli Vietnamese And Thai Restaurant QLD"
            },
            "type": "Feature"
        },
        {
            "geometry": {
                "coordinates": [
                    152.681896,
                    -27.9956611
                ],
                "type": "Point"
            },
            "properties": {
                "name": "Flavours Cafe QLD"
            },
            "type": "Feature"
        },
        {
            "geometry": {
                "coordinates": [
                    153.0624929,
                    -27.2932189
                ],
                "type": "Point"
            },
            "properties": {
                "name": "Thai Brighton QLD"
            },
            "type": "Feature"
        },
        {
            "geometry": {
                "coordinates": [
                    152.7848067,
                    -27.6310126
                ],
                "type": "Point"
            },
            "properties": {
                "name": "Brothers Leagues Club QLD"
            },
            "type": "Feature"
        },
        {
            "geometry": {
                "coordinates": [
                    152.6897424,
                    -25.5328624
                ],
                "type": "Point"
            },
            "properties": {
                "name": "Carriers Arms Restaurant QLD"
            },
            "type": "Feature"
        },
        {
            "geometry": {
                "coordinates": [
                    153.0335158,
                    -27.4574263
                ],
                "type": "Point"
            },
            "properties": {
                "name": "The Buffalo Club QLD"
            },
            "type": "Feature"
        },
        {
            "geometry": {
                "coordinates": [
                    153.0057092,
                    -27.5022494
                ],
                "type": "Point"
            },
            "properties": {
                "name": "A Salt and Battery QLD"
            },
            "type": "Feature"
        },
        {
            "geometry": {
                "coordinates": [
                    153.0306058,
                    -27.4619362
                ],
                "type": "Point"
            },
            "properties": {
                "name": "Tognini's Bistro Cafe Deli QLD"
            },
            "type": "Feature"
        },
        {
            "geometry": {
                "coordinates": [
                    153.0417423,
                    -27.4294701
                ],
                "type": "Point"
            },
            "properties": {
                "name": "Cucina Bar QLD"
            },
            "type": "Feature"
        },
        {
            "geometry": {
                "coordinates": [
                    153.0336618,
                    -27.4587457
                ],
                "type": "Point"
            },
            "properties": {
                "name": "Green Tea QLD"
            },
            "type": "Feature"
        },
        {
            "geometry": {
                "coordinates": [
                    153.0342885,
                    -27.4580559
                ],
                "type": "Point"
            },
            "properties": {
                "name": "Oshin Restaurant QLD"
            },
            "type": "Feature"
        },
        {
            "geometry": {
                "coordinates": [
                    153.0421964,
                    -27.4291451
                ],
                "type": "Point"
            },
            "properties": {
                "name": "Ciao Baby QLD"
            },
            "type": "Feature"
        },
        {
            "geometry": {
                "coordinates": [
                    153.0333126,
                    -27.4579881
                ],
                "type": "Point"
            },
            "properties": {
                "name": "King Of Kings QLD"
            },
            "type": "Feature"
        },
        {
            "geometry": {
                "coordinates": [
                    153.033704,
                    -27.4584721
                ],
                "type": "Point"
            },
            "properties": {
                "name": "PhoB QLD"
            },
            "type": "Feature"
        },
        {
            "geometry": {
                "coordinates": [
                    153.0355704,
                    -27.4587391
                ],
                "type": "Point"
            },
            "properties": {
                "name": "Giardinetto QLD"
            },
            "type": "Feature"
        },
        {
            "geometry": {
                "coordinates": [
                    153.0418246,
                    -27.4300596
                ],
                "type": "Point"
            },
            "properties": {
                "name": "Effes One QLD"
            },
            "type": "Feature"
        },
        {
            "geometry": {
                "coordinates": [
                    153.0422674,
                    -27.4290973
                ],
                "type": "Point"
            },
            "properties": {
                "name": "Thaiways QLD"
            },
            "type": "Feature"
        },
        {
            "geometry": {
                "coordinates": [
                    153.0377857,
                    -27.4532217
                ],
                "type": "Point"
            },
            "properties": {
                "name": "Oriental Yum Cha QLD"
            },
            "type": "Feature"
        },
        {
            "geometry": {
                "coordinates": [
                    153.0339946,
                    -27.4589949
                ],
                "type": "Point"
            },
            "properties": {
                "name": "Golden Palace Restaurant QLD"
            },
            "type": "Feature"
        },
        {
            "geometry": {
                "coordinates": [
                    153.0421312,
                    -27.4294676
                ],
                "type": "Point"
            },
            "properties": {
                "name": "Sitar Indian Restaurant QLD"
            },
            "type": "Feature"
        },
        {
            "geometry": {
                "coordinates": [
                    153.0332303,
                    -27.4580846
                ],
                "type": "Point"
            },
            "properties": {
                "name": "China House QLD"
            },
            "type": "Feature"
        },
        {
            "geometry": {
                "coordinates": [
                    153.0324421,
                    -27.4590347
                ],
                "type": "Point"
            },
            "properties": {
                "name": "Bow Thai QLD"
            },
            "type": "Feature"
        },
        {
            "geometry": {
                "coordinates": [
                    153.0320306,
                    -27.4597225
                ],
                "type": "Point"
            },
            "properties": {
                "name": "Oyama QLD"
            },
            "type": "Feature"
        },
        {
            "geometry": {
                "coordinates": [
                    153.0348177,
                    -27.4581761
                ],
                "type": "Point"
            },
            "properties": {
                "name": "Mellinos QLD"
            },
            "type": "Feature"
        },
        {
            "geometry": {
                "coordinates": [
                    153.0393962,
                    -27.4535003
                ],
                "type": "Point"
            },
            "properties": {
                "name": "Ginga Sushi Bar QLD"
            },
            "type": "Feature"
        },
        {
            "geometry": {
                "coordinates": [
                    152.7629189,
                    -27.6151472
                ],
                "type": "Point"
            },
            "properties": {
                "name": "Hogs Breath Cafe QLD"
            },
            "type": "Feature"
        },
        {
            "geometry": {
                "coordinates": [
                    153.0697071,
                    -27.3212853
                ],
                "type": "Point"
            },
            "properties": {
                "name": "Thai Sandgate QLD"
            },
            "type": "Feature"
        },
        {
            "geometry": {
                "coordinates": [
                    153.0294307,
                    -27.4857224
                ],
                "type": "Point"
            },
            "properties": {
                "name": "C'est Bon QLD"
            },
            "type": "Feature"
        },
        {
            "geometry": {
                "coordinates": [
                    153.0295997,
                    -27.4857437
                ],
                "type": "Point"
            },
            "properties": {
                "name": "Vespa Pizza QLD"
            },
            "type": "Feature"
        },
        {
            "geometry": {
                "coordinates": [
                    153.0302689,
                    -27.4858544
                ],
                "type": "Point"
            },
            "properties": {
                "name": "Bengal Kitchen Indian Resteraunt QLD"
            },
            "type": "Feature"
        },
        {
            "geometry": {
                "coordinates": [
                    153.0063877,
                    -27.5022571
                ],
                "type": "Point"
            },
            "properties": {
                "name": "My Heart Garden QLD"
            },
            "type": "Feature"
        },
        {
            "geometry": {
                "coordinates": [
                    153.0041031,
                    -27.4608717
                ],
                "type": "Point"
            },
            "properties": {
                "name": "The Lark Food and Drink QLD"
            },
            "type": "Feature"
        },
        {
            "geometry": {
                "coordinates": [
                    153.0087693,
                    -27.4622667
                ],
                "type": "Point"
            },
            "properties": {
                "name": "Darling and Co QLD"
            },
            "type": "Feature"
        },
        {
            "geometry": {
                "coordinates": [
                    153.0338463,
                    -27.4230869
                ],
                "type": "Point"
            },
            "properties": {
                "name": "Hong Kong BBQ Resteurant QLD"
            },
            "type": "Feature"
        },
        {
            "geometry": {
                "coordinates": [
                    152.9574954,
                    -26.8554854
                ],
                "type": "Point"
            },
            "properties": {
                "name": "Beerwah Chinese Take Away QLD"
            },
            "type": "Feature"
        },
        {
            "geometry": {
                "coordinates": [
                    152.9615892,
                    -26.8855503
                ],
                "type": "Point"
            },
            "properties": {
                "name": "Pineapple Patch Chinese Restaurant and Takeaway QLD"
            },
            "type": "Feature"
        },
        {
            "geometry": {
                "coordinates": [
                    149.8820351,
                    -27.3231907
                ],
                "type": "Point"
            },
            "properties": {
                "name": "Sara Street Cafe QLD"
            },
            "type": "Feature"
        },
        {
            "geometry": {
                "coordinates": [
                    153.2974236,
                    -27.6288759
                ],
                "type": "Point"
            },
            "properties": {
                "name": "Platinum Thai QLD"
            },
            "type": "Feature"
        },
        {
            "geometry": {
                "coordinates": [
                    153.109402,
                    -27.229493
                ],
                "type": "Point"
            },
            "properties": {
                "name": "Sizzler QLD"
            },
            "type": "Feature"
        },
        {
            "geometry": {
                "coordinates": [
                    153.0260031,
                    -27.4697727
                ],
                "type": "Point"
            },
            "properties": {
                "name": "Vapiano QLD"
            },
            "type": "Feature"
        },
        {
            "geometry": {
                "coordinates": [
                    153.0303565,
                    -27.4689648
                ],
                "type": "Point"
            },
            "properties": {
                "name": "Grill'd QLD"
            },
            "type": "Feature"
        },
        {
            "geometry": {
                "coordinates": [
                    148.0776449,
                    -23.6588682
                ],
                "type": "Point"
            },
            "properties": {
                "name": "Lake Maraboon QLD"
            },
            "type": "Feature"
        },
        {
            "geometry": {
                "coordinates": [
                    147.7243184,
                    -23.4575527
                ],
                "type": "Point"
            },
            "properties": {
                "name": "Pats Gems QLD"
            },
            "type": "Feature"
        },
        {
            "geometry": {
                "coordinates": [
                    153.2081764,
                    -27.7285783
                ],
                "type": "Point"
            },
            "properties": {
                "name": "Manora Thai Inn QLD"
            },
            "type": "Feature"
        },
        {
            "geometry": {
                "coordinates": [
                    152.2994917,
                    -28.0595042
                ],
                "type": "Point"
            },
            "properties": {
                "name": "Bestbrook Mountain Resort QLD"
            },
            "type": "Feature"
        },
        {
            "geometry": {
                "coordinates": [
                    153.2679271,
                    -27.5241872
                ],
                "type": "Point"
            },
            "properties": {
                "name": "Hog's Breath Cafe QLD"
            },
            "type": "Feature"
        },
        {
            "geometry": {
                "coordinates": [
                    153.0294058,
                    -27.4693633
                ],
                "type": "Point"
            },
            "properties": {
                "name": "Malt Dining QLD"
            },
            "type": "Feature"
        },
        {
            "geometry": {
                "coordinates": [
                    148.9567915,
                    -20.347264
                ],
                "type": "Point"
            },
            "properties": {
                "name": "Pool Terrace QLD"
            },
            "type": "Feature"
        },
        {
            "geometry": {
                "coordinates": [
                    153.2264473,
                    -27.8755792
                ],
                "type": "Point"
            },
            "properties": {
                "name": "Fox & Hound Country Inn QLD"
            },
            "type": "Feature"
        },
        {
            "geometry": {
                "coordinates": [
                    146.240328,
                    -26.4007
                ],
                "type": "Point"
            },
            "properties": {
                "name": "Indian Star QLD"
            },
            "type": "Feature"
        },
        {
            "geometry": {
                "coordinates": [
                    150.4537837,
                    -23.432456
                ],
                "type": "Point"
            },
            "properties": {
                "name": "McDonalds QLD"
            },
            "type": "Feature"
        },
        {
            "geometry": {
                "coordinates": [
                    151.952836,
                    -27.5629534
                ],
                "type": "Point"
            },
            "properties": {
                "name": "Dees Vintage Thai QLD"
            },
            "type": "Feature"
        },
        {
            "geometry": {
                "coordinates": [
                    153.0415533,
                    -27.4581912
                ],
                "type": "Point"
            },
            "properties": {
                "name": "Fusion 54 QLD"
            },
            "type": "Feature"
        },
        {
            "geometry": {
                "coordinates": [
                    153.041602,
                    -27.4582289
                ],
                "type": "Point"
            },
            "properties": {
                "name": "The Purple Olive Restaurant QLD"
            },
            "type": "Feature"
        },
        {
            "geometry": {
                "coordinates": [
                    153.1348297,
                    -28.2307468
                ],
                "type": "Point"
            },
            "properties": {
                "name": "O'Reilly's Cafe & Gifts QLD"
            },
            "type": "Feature"
        },
        {
            "geometry": {
                "coordinates": [
                    149.1826511,
                    -21.1405669
                ],
                "type": "Point"
            },
            "properties": {
                "name": "Kowloon QLD"
            },
            "type": "Feature"
        },
        {
            "geometry": {
                "coordinates": [
                    149.1854332,
                    -21.1409691
                ],
                "type": "Point"
            },
            "properties": {
                "name": "Masala QLD"
            },
            "type": "Feature"
        },
        {
            "geometry": {
                "coordinates": [
                    149.1830658,
                    -21.1409769
                ],
                "type": "Point"
            },
            "properties": {
                "name": "Noodle Paradise QLD"
            },
            "type": "Feature"
        },
        {
            "geometry": {
                "coordinates": [
                    149.1838784,
                    -21.1407345
                ],
                "type": "Point"
            },
            "properties": {
                "name": "Sorbellos QLD"
            },
            "type": "Feature"
        },
        {
            "geometry": {
                "coordinates": [
                    149.1841686,
                    -21.1407839
                ],
                "type": "Point"
            },
            "properties": {
                "name": "Roshni QLD"
            },
            "type": "Feature"
        },
        {
            "geometry": {
                "coordinates": [
                    149.1870795,
                    -21.140133
                ],
                "type": "Point"
            },
            "properties": {
                "name": "Toong Tong QLD"
            },
            "type": "Feature"
        },
        {
            "geometry": {
                "coordinates": [
                    145.4649119,
                    -16.4835033
                ],
                "type": "Point"
            },
            "properties": {
                "name": "Bucci QLD"
            },
            "type": "Feature"
        },
        {
            "geometry": {
                "coordinates": [
                    145.4651533,
                    -16.4836496
                ],
                "type": "Point"
            },
            "properties": {
                "name": "Tortilla's QLD"
            },
            "type": "Feature"
        },
        {
            "geometry": {
                "coordinates": [
                    145.4630511,
                    -16.4810547
                ],
                "type": "Point"
            },
            "properties": {
                "name": "Paddy's QLD"
            },
            "type": "Feature"
        },
        {
            "geometry": {
                "coordinates": [
                    145.462882,
                    -16.48124
                ],
                "type": "Point"
            },
            "properties": {
                "name": "Steak House Iron Bar QLD"
            },
            "type": "Feature"
        },
        {
            "geometry": {
                "coordinates": [
                    153.1091007,
                    -27.1939987
                ],
                "type": "Point"
            },
            "properties": {
                "name": "Moreton Bay Boat Club QLD"
            },
            "type": "Feature"
        },
        {
            "geometry": {
                "coordinates": [
                    145.4658912,
                    -16.4842222
                ],
                "type": "Point"
            },
            "properties": {
                "name": "Pasta & Co. QLD"
            },
            "type": "Feature"
        },
        {
            "geometry": {
                "coordinates": [
                    152.986372,
                    -27.4948534
                ],
                "type": "Point"
            },
            "properties": {
                "name": "Place of Stones QLD"
            },
            "type": "Feature"
        },
        {
            "geometry": {
                "coordinates": [
                    145.4647219,
                    -16.4833644
                ],
                "type": "Point"
            },
            "properties": {
                "name": "Jade Inn QLD"
            },
            "type": "Feature"
        },
        {
            "geometry": {
                "coordinates": [
                    145.465047,
                    -16.4832727
                ],
                "type": "Point"
            },
            "properties": {
                "name": "Rattle n Hum QLD"
            },
            "type": "Feature"
        },
        {
            "geometry": {
                "coordinates": [
                    146.8137855,
                    -19.26188
                ],
                "type": "Point"
            },
            "properties": {
                "name": "Thai QLD"
            },
            "type": "Feature"
        },
        {
            "geometry": {
                "coordinates": [
                    146.8126536,
                    -19.2633182
                ],
                "type": "Point"
            },
            "properties": {
                "name": "Taiping Chinese QLD"
            },
            "type": "Feature"
        },
        {
            "geometry": {
                "coordinates": [
                    145.7681877,
                    -16.9136449
                ],
                "type": "Point"
            },
            "properties": {
                "name": "Bayleaf QLD"
            },
            "type": "Feature"
        },
        {
            "geometry": {
                "coordinates": [
                    145.4630249,
                    -16.4814625
                ],
                "type": "Point"
            },
            "properties": {
                "name": "Central Hotel QLD"
            },
            "type": "Feature"
        },
        {
            "geometry": {
                "coordinates": [
                    145.5820989,
                    -17.2739817
                ],
                "type": "Point"
            },
            "properties": {
                "name": "Nicks Restaurant and Yodellers Bar QLD"
            },
            "type": "Feature"
        },
        {
            "geometry": {
                "coordinates": [
                    146.7832579,
                    -19.2709543
                ],
                "type": "Point"
            },
            "properties": {
                "name": "Sizzler QLD"
            },
            "type": "Feature"
        },
        {
            "geometry": {
                "coordinates": [
                    153.026924,
                    -27.4711806
                ],
                "type": "Point"
            },
            "properties": {
                "name": "Palettes QLD"
            },
            "type": "Feature"
        },
        {
            "geometry": {
                "coordinates": [
                    153.0252754,
                    -27.472161
                ],
                "type": "Point"
            },
            "properties": {
                "name": "The Pancake Manor QLD"
            },
            "type": "Feature"
        },
        {
            "geometry": {
                "coordinates": [
                    153.0257582,
                    -27.4717844
                ],
                "type": "Point"
            },
            "properties": {
                "name": "Little Singapore QLD"
            },
            "type": "Feature"
        },
        {
            "geometry": {
                "coordinates": [
                    153.0259996,
                    -27.4715952
                ],
                "type": "Point"
            },
            "properties": {
                "name": "City Wok QLD"
            },
            "type": "Feature"
        },
        {
            "geometry": {
                "coordinates": [
                    152.9807617,
                    -27.5250269
                ],
                "type": "Point"
            },
            "properties": {
                "name": "Ceylon Inn QLD"
            },
            "type": "Feature"
        },
        {
            "geometry": {
                "coordinates": [
                    151.9467646,
                    -27.5684013
                ],
                "type": "Point"
            },
            "properties": {
                "name": "Subway QLD"
            },
            "type": "Feature"
        },
        {
            "geometry": {
                "coordinates": [
                    147.3539373,
                    -19.5539362
                ],
                "type": "Point"
            },
            "properties": {
                "name": "Brandon Tavern QLD"
            },
            "type": "Feature"
        },
        {
            "geometry": {
                "coordinates": [
                    152.8177561,
                    -26.7173842
                ],
                "type": "Point"
            },
            "properties": {
                "name": "Maudys QLD"
            },
            "type": "Feature"
        },
        {
            "geometry": {
                "coordinates": [
                    153.1348604,
                    -26.8055764
                ],
                "type": "Point"
            },
            "properties": {
                "name": "Amici Cafe QLD"
            },
            "type": "Feature"
        },
        {
            "geometry": {
                "coordinates": [
                    145.2829076,
                    -23.5624503
                ],
                "type": "Point"
            },
            "properties": {
                "name": "Ironbark Restaurant QLD"
            },
            "type": "Feature"
        },
        {
            "geometry": {
                "coordinates": [
                    149.1580221,
                    -21.0669165
                ],
                "type": "Point"
            },
            "properties": {
                "name": "Northern Beaches Bowles Club QLD"
            },
            "type": "Feature"
        },
        {
            "geometry": {
                "coordinates": [
                    149.1498882,
                    -21.1219574
                ],
                "type": "Point"
            },
            "properties": {
                "name": "Magpies Sporting Club QLD"
            },
            "type": "Feature"
        },
        {
            "geometry": {
                "coordinates": [
                    149.1760021,
                    -21.1220524
                ],
                "type": "Point"
            },
            "properties": {
                "name": "North Mackay Bowles Club QLD"
            },
            "type": "Feature"
        },
        {
            "geometry": {
                "coordinates": [
                    149.1607511,
                    -21.0847829
                ],
                "type": "Point"
            },
            "properties": {
                "name": "Norths Leagues Club QLD"
            },
            "type": "Feature"
        },
        {
            "geometry": {
                "coordinates": [
                    149.1873181,
                    -21.14156
                ],
                "type": "Point"
            },
            "properties": {
                "name": "Lonestar Rib House QLD"
            },
            "type": "Feature"
        },
        {
            "geometry": {
                "coordinates": [
                    149.1687353,
                    -21.1536326
                ],
                "type": "Point"
            },
            "properties": {
                "name": "Souths Suburban Bowles Club QLD"
            },
            "type": "Feature"
        },
        {
            "geometry": {
                "coordinates": [
                    149.1849955,
                    -21.0533094
                ],
                "type": "Point"
            },
            "properties": {
                "name": "Blacks Beach Tavern QLD"
            },
            "type": "Feature"
        },
        {
            "geometry": {
                "coordinates": [
                    148.9401362,
                    -21.1452425
                ],
                "type": "Point"
            },
            "properties": {
                "name": "Marian Bowles Club QLD"
            },
            "type": "Feature"
        },
        {
            "geometry": {
                "coordinates": [
                    148.94342,
                    -21.1469768
                ],
                "type": "Point"
            },
            "properties": {
                "name": "Railway Hotel QLD"
            },
            "type": "Feature"
        },
        {
            "geometry": {
                "coordinates": [
                    149.1889647,
                    -21.1257172
                ],
                "type": "Point"
            },
            "properties": {
                "name": "Subway-North Mackay QLD"
            },
            "type": "Feature"
        },
        {
            "geometry": {
                "coordinates": [
                    150.4977454,
                    -23.3688707
                ],
                "type": "Point"
            },
            "properties": {
                "name": "Malaysia Hut QLD"
            },
            "type": "Feature"
        },
        {
            "geometry": {
                "coordinates": [
                    152.9972432,
                    -27.4654352
                ],
                "type": "Point"
            },
            "properties": {
                "name": "Mint QLD"
            },
            "type": "Feature"
        },
        {
            "geometry": {
                "coordinates": [
                    153.0246369,
                    -27.5322703
                ],
                "type": "Point"
            },
            "properties": {
                "name": "Oriental Taste QLD"
            },
            "type": "Feature"
        },
        {
            "geometry": {
                "coordinates": [
                    153.0254684,
                    -27.5330171
                ],
                "type": "Point"
            },
            "properties": {
                "name": "Ho Choi Chinese QLD"
            },
            "type": "Feature"
        },
        {
            "geometry": {
                "coordinates": [
                    151.1325167,
                    -24.963685
                ],
                "type": "Point"
            },
            "properties": {
                "name": "Mulgildie Hotel QLD"
            },
            "type": "Feature"
        },
        {
            "geometry": {
                "coordinates": [
                    153.0248151,
                    -27.5335686
                ],
                "type": "Point"
            },
            "properties": {
                "name": "Red Lion Bistro QLD"
            },
            "type": "Feature"
        },
        {
            "geometry": {
                "coordinates": [
                    153.0244959,
                    -27.5331643
                ],
                "type": "Point"
            },
            "properties": {
                "name": "Mu'ooz Eritrean QLD"
            },
            "type": "Feature"
        },
        {
            "geometry": {
                "coordinates": [
                    153.069256,
                    -27.4413791
                ],
                "type": "Point"
            },
            "properties": {
                "name": "Byblos QLD"
            },
            "type": "Feature"
        },
        {
            "geometry": {
                "coordinates": [
                    149.8042183,
                    -25.6390981
                ],
                "type": "Point"
            },
            "properties": {
                "name": "Cattle Camp Motel Restaurant QLD"
            },
            "type": "Feature"
        },
        {
            "geometry": {
                "coordinates": [
                    149.7945623,
                    -25.6380632
                ],
                "type": "Point"
            },
            "properties": {
                "name": "Taroom Bowls Club QLD"
            },
            "type": "Feature"
        },
        {
            "geometry": {
                "coordinates": [
                    149.7938311,
                    -25.6419497
                ],
                "type": "Point"
            },
            "properties": {
                "name": "Leichhardt Hotel QLD"
            },
            "type": "Feature"
        },
        {
            "geometry": {
                "coordinates": [
                    152.9655689,
                    -26.8090476
                ],
                "type": "Point"
            },
            "properties": {
                "name": "Mellum Munchies QLD"
            },
            "type": "Feature"
        },
        {
            "geometry": {
                "coordinates": [
                    149.1870341,
                    -21.1432284
                ],
                "type": "Point"
            },
            "properties": {
                "name": "Oscars Bar and Grill QLD"
            },
            "type": "Feature"
        },
        {
            "geometry": {
                "coordinates": [
                    149.1782097,
                    -21.1398848
                ],
                "type": "Point"
            },
            "properties": {
                "name": "Red Rooster QLD"
            },
            "type": "Feature"
        },
        {
            "geometry": {
                "coordinates": [
                    149.1889544,
                    -21.1408968
                ],
                "type": "Point"
            },
            "properties": {
                "name": "Byrnes Pies QLD"
            },
            "type": "Feature"
        },
        {
            "geometry": {
                "coordinates": [
                    149.3131765,
                    -21.3910785
                ],
                "type": "Point"
            },
            "properties": {
                "name": "The Surf Club - Sarina Beach QLD"
            },
            "type": "Feature"
        },
        {
            "geometry": {
                "coordinates": [
                    153.3814437,
                    -27.9561447
                ],
                "type": "Point"
            },
            "properties": {
                "name": "Little Roma QLD"
            },
            "type": "Feature"
        },
        {
            "geometry": {
                "coordinates": [
                    151.8397824,
                    -26.5421272
                ],
                "type": "Point"
            },
            "properties": {
                "name": "Kingaroy RSL QLD"
            },
            "type": "Feature"
        },
        {
            "geometry": {
                "coordinates": [
                    153.0237921,
                    -27.4700166
                ],
                "type": "Point"
            },
            "properties": {
                "name": "The Survey Co. QLD"
            },
            "type": "Feature"
        },
        {
            "geometry": {
                "coordinates": [
                    151.9479164,
                    -27.5908966
                ],
                "type": "Point"
            },
            "properties": {
                "name": "Fire & Ice QLD"
            },
            "type": "Feature"
        },
        {
            "geometry": {
                "coordinates": [
                    151.9570407,
                    -27.5676645
                ],
                "type": "Point"
            },
            "properties": {
                "name": "La Porchetta QLD"
            },
            "type": "Feature"
        },
        {
            "geometry": {
                "coordinates": [
                    152.975188,
                    -27.5540509
                ],
                "type": "Point"
            },
            "properties": {
                "name": "Pellegrini Restaurant QLD"
            },
            "type": "Feature"
        },
        {
            "geometry": {
                "coordinates": [
                    152.9746265,
                    -27.5527367
                ],
                "type": "Point"
            },
            "properties": {
                "name": "Thai Malila QLD"
            },
            "type": "Feature"
        },
        {
            "geometry": {
                "coordinates": [
                    149.1853354,
                    -21.1594318
                ],
                "type": "Point"
            },
            "properties": {
                "name": "Harrup Park Country Club QLD"
            },
            "type": "Feature"
        },
        {
            "geometry": {
                "coordinates": [
                    145.7776415,
                    -16.9224764
                ],
                "type": "Point"
            },
            "properties": {
                "name": "Koh-ya QLD"
            },
            "type": "Feature"
        },
        {
            "geometry": {
                "coordinates": [
                    145.7694069,
                    -16.9189724
                ],
                "type": "Point"
            },
            "properties": {
                "name": "Sushi Roll King QLD"
            },
            "type": "Feature"
        },
        {
            "geometry": {
                "coordinates": [
                    152.9106647,
                    -26.4175701
                ],
                "type": "Point"
            },
            "properties": {
                "name": "Cooroy RSL Club QLD"
            },
            "type": "Feature"
        },
        {
            "geometry": {
                "coordinates": [
                    145.6995852,
                    -16.7854447
                ],
                "type": "Point"
            },
            "properties": {
                "name": "L'Unico Trattoria QLD"
            },